[
    {
        "name": "80 van Balk",
        "country": "Netherlands",
        "distance": "80km",
        "date": "11/05/2024",
        "url": "https://statistik.d-u-v.org/eventdetail.php?event=107563",
        "city": "BALK",
        "terrain": "road",
        "lat": 52.8989296,
        "lng": 5.5830455
    },
    {
        "name": "Amerongse Berg Ultra 50k",
        "country": "Netherlands",
        "distance": "50km",
        "date": "26/05/2024",
        "url": "https://statistik.d-u-v.org/eventdetail.php?event=108243",
        "city": "Overberg",
        "elevation": "750m",
        "terrain": "trail",
        "lat": 52.0390484,
        "lng": 5.4964645
    },
    {
        "name": "Linie1629ultra",
        "country": "Netherlands",
        "distance": "50km",
        "date": "01/06/2024",
        "url": "https://statistik.d-u-v.org/eventdetail.php?event=106071",
        "city": "Vught",
        "terrain": "road",
        "lat": 51.6511806,
        "lng": 5.2368001
    },
    {
        "name": "3 Pierewaai Summer Beach Trail",
        "country": "Netherlands",
        "distance": "50km",
        "date": "01/06/2024",
        "url": "https://statistik.d-u-v.org/eventdetail.php?event=104994",
        "city": "IJmuiden",
        "elevation": "540m",
        "terrain": "trail",
        "lat": 52.4574236,
        "lng": 4.6111981
    },
    {
        "name": "3rd Liberation Trail - stage 5: Eindhoven - Groesbeek",
        "country": "Netherlands",
        "distance": "81km",
        "date": "15/06/2024",
        "url": "https://statistik.d-u-v.org/eventdetail.php?event=108326",
        "city": "Eindhoven",
        "terrain": "trail",
        "lat": 51.4392648,
        "lng": 5.478633
    },
    {
        "name": "Rondom Stad",
        "country": "Netherlands",
        "distance": "66km",
        "date": "22/06/2024",
        "url": "https://statistik.d-u-v.org/eventdetail.php?event=101921",
        "city": "Sint Annen",
        "terrain": "road",
        "lat": 53.2979462,
        "lng": 6.6652567
    },
    {
        "name": "23 Zes uur van de Haarlemmermeer",
        "country": "Netherlands",
        "distance": "6h",
        "date": "29/06/2024",
        "url": "https://statistik.d-u-v.org/eventdetail.php?event=98995",
        "city": "Hoofddorp",
        "elevation": "10m",
        "terrain": "road",
        "lat": 52.305554,
        "lng": 4.6926644
    },
    {
        "name": "VechtdalTrail",
        "country": "Netherlands",
        "distance": "50km",
        "date": "06/07/2024",
        "url": "https://statistik.d-u-v.org/eventdetail.php?event=109094",
        "city": "Ommen",
        "elevation": "187m",
        "terrain": "trail",
        "lat": 52.510347,
        "lng": 6.4524247
    },
    {
        "name": "De 6 Uur van Deventer - 50km Split",
        "country": "Netherlands",
        "distance": "50km",
        "date": "13/07/2024",
        "url": "https://statistik.d-u-v.org/eventdetail.php?event=109183",
        "city": "Deventer",
        "terrain": "road",
        "lat": 52.2694897,
        "lng": 6.2364886
    },
    {
        "name": "De 6 Uur van Deventer",
        "country": "Netherlands",
        "distance": "6h",
        "date": "13/07/2024",
        "url": "https://statistik.d-u-v.org/eventdetail.php?event=104997",
        "city": "Deventer",
        "terrain": "road",
        "lat": 52.2694897,
        "lng": 6.2364886
    },
    {
        "name": "48. RUN Winschoten 50 km - Nederlands Kampioenschap",
        "country": "Netherlands",
        "distance": "50km",
        "date": "14/09/2024",
        "url": "https://statistik.d-u-v.org/eventdetail.php?event=110754",
        "city": "Winschoten",
        "elevation": "15m",
        "terrain": "road",
        "lat": 53.143001,
        "lng": 7.0380717
    },
    {
        "name": "48. RUN Winschoten 100 km - Nederlands Kampioenschap",
        "country": "Netherlands",
        "distance": "100km",
        "date": "14/09/2024",
        "url": "https://statistik.d-u-v.org/eventdetail.php?event=110753",
        "city": "Winschoten",
        "elevation": "10m",
        "terrain": "road",
        "lat": 53.143001,
        "lng": 7.0380717
    },
    {
        "name": "48. RUN Winschoten 50 km - open race",
        "country": "Netherlands",
        "distance": "50km",
        "date": "14/09/2024",
        "url": "https://statistik.d-u-v.org/eventdetail.php?event=110628",
        "city": "Winschoten",
        "elevation": "15m",
        "terrain": "road",
        "lat": 53.143001,
        "lng": 7.0380717
    },
    {
        "name": "48. RUN Winschoten 100 km - open race",
        "country": "Netherlands",
        "distance": "100km",
        "date": "14/09/2024",
        "url": "https://statistik.d-u-v.org/eventdetail.php?event=110627",
        "city": "Winschoten",
        "elevation": "10m",
        "terrain": "road",
        "lat": 53.143001,
        "lng": 7.0380717
    },
    {
        "name": "Zevenheuvelentrail - NK trailrunning lange trail",
        "country": "Netherlands",
        "distance": "60km",
        "date": "21/09/2024",
        "url": "https://statistik.d-u-v.org/eventdetail.php?event=112006",
        "city": "Nijmegen",
        "elevation": "1300m",
        "terrain": "trail",
        "lat": 51.8425749,
        "lng": 5.8389606
    },
    {
        "name": "Zevenheuvelentrail",
        "country": "Netherlands",
        "distance": "60km",
        "date": "21/09/2024",
        "url": "https://statistik.d-u-v.org/eventdetail.php?event=112005",
        "city": "Nijmegen",
        "elevation": "1300m",
        "terrain": "trail",
        "lat": 51.8425749,
        "lng": 5.8389606
    },
    {
        "name": "18. Sri Chinmoy 6-Stunden-Lauf Amsterdam",
        "country": "Netherlands",
        "distance": "6h",
        "date": "28/09/2024",
        "url": "https://statistik.d-u-v.org/eventdetail.php?event=110934",
        "city": "Amstelveen",
        "terrain": "road",
        "lat": 52.3028209,
        "lng": 4.8596844
    },
    {
        "name": "Brekeld Runners Trail",
        "country": "Netherlands",
        "distance": "50km",
        "date": "05/10/2024",
        "url": "https://statistik.d-u-v.org/eventdetail.php?event=114326",
        "city": "Rijssen",
        "elevation": "11432m",
        "terrain": "trail",
        "lat": 52.3080276,
        "lng": 6.5213004
    },
    {
        "name": "Indian Summer Ultra 50 km",
        "country": "Netherlands",
        "distance": "50km",
        "date": "12/10/2024",
        "url": "https://statistik.d-u-v.org/eventdetail.php?event=103725",
        "city": "Gasselte",
        "terrain": "trail",
        "lat": 52.971916,
        "lng": 6.7921853
    },
    {
        "name": "Indian Summer Ultra 75 km",
        "country": "Netherlands",
        "distance": "75km",
        "date": "12/10/2024",
        "url": "https://statistik.d-u-v.org/eventdetail.php?event=103724",
        "city": "Gasselte",
        "elevation": "13m",
        "terrain": "trail",
        "lat": 52.971916,
        "lng": 6.7921853
    },
    {
        "name": "Indian Summer Ultra 100 km",
        "country": "Netherlands",
        "distance": "100km",
        "date": "12/10/2024",
        "url": "https://statistik.d-u-v.org/eventdetail.php?event=103723",
        "city": "Gasselte",
        "terrain": "trail",
        "lat": 52.971916,
        "lng": 6.7921853
    },
    {
        "name": "3. Gaasterland Trail",
        "country": "Netherlands",
        "distance": "50km",
        "date": "26/10/2024",
        "url": "https://statistik.d-u-v.org/eventdetail.php?event=102079",
        "city": "Harich",
        "elevation": "110m",
        "terrain": "trail",
        "lat": 52.902242,
        "lng": 5.5642127
    },
    {
        "name": "LauwersmeerLoop",
        "country": "Netherlands",
        "distance": "60km",
        "date": "03/11/2024",
        "url": "https://statistik.d-u-v.org/eventdetail.php?event=109164",
        "city": "Zoutkamp",
        "terrain": "trail",
        "lat": 53.3369602,
        "lng": 6.3011339
    },
    {
        "name": "Graef Castricum Trail Ultra 60km",
        "country": "Netherlands",
        "distance": "60km",
        "date": "24/11/2024",
        "url": "https://statistik.d-u-v.org/eventdetail.php?event=114055",
        "city": "Castricum",
        "elevation": "600m",
        "terrain": "trail",
        "lat": 52.5496739,
        "lng": 4.6696185
    },
    {
        "name": "UHUT UtrechtseHeuvelUltratrail - Doorn Loop",
        "country": "Netherlands",
        "distance": "50km",
        "date": "30/11/2024",
        "url": "https://statistik.d-u-v.org/eventdetail.php?event=63759",
        "city": "Leersum",
        "elevation": "68m",
        "terrain": "trail",
        "lat": 52.0102642,
        "lng": 5.4332757
    },
    {
        "name": "UHUT UtrechtseHeuvelUltratrail 100km - Doorn Loop split",
        "country": "Netherlands",
        "distance": "50km",
        "date": "30/11/2024",
        "url": "https://statistik.d-u-v.org/eventdetail.php?event=114435",
        "city": "Leersum",
        "elevation": "68m",
        "terrain": "trail",
        "lat": 52.0102642,
        "lng": 5.4332757
    },
    {
        "name": "Voorne's Duin Trail",
        "country": "Netherlands",
        "distance": "60km",
        "date": "01/12/2024",
        "url": "https://statistik.d-u-v.org/eventdetail.php?event=114343",
        "city": "Oostvoorne",
        "elevation": "11434m",
        "terrain": "trail",
        "lat": 51.914271,
        "lng": 4.1038932
    },
    {
        "name": "UHUT UtrechtseHeuvelUltratrail - Rhenen Loop",
        "country": "Netherlands",
        "distance": "50km",
        "date": "01/12/2024",
        "url": "https://statistik.d-u-v.org/eventdetail.php?event=62061",
        "city": "Leersum",
        "elevation": "68m",
        "terrain": "trail",
        "lat": 52.0102642,
        "lng": 5.4332757
    },
    {
        "name": "UHUT UtrechtseHeuvelUltratrail 100km - Rhenen Loop split",
        "country": "Netherlands",
        "distance": "50km",
        "date": "01/12/2024",
        "url": "https://statistik.d-u-v.org/eventdetail.php?event=114434",
        "city": "Leersum",
        "elevation": "68m",
        "terrain": "trail",
        "lat": 52.0102642,
        "lng": 5.4332757
    },
    {
        "name": "2e Sint Annen 240 - 50mi",
        "country": "Netherlands",
        "distance": "50mi",
        "date": "27/12/2024",
        "url": "https://statistik.d-u-v.org/eventdetail.php?event=103936",
        "city": "Sint Annen",
        "terrain": "road",
        "lat": 53.2979462,
        "lng": 6.6652567
    },
    {
        "name": "Veluwezoom Trail - Winter",
        "country": "Netherlands",
        "distance": "58km",
        "date": "29/12/2024",
        "url": "https://statistik.d-u-v.org/eventdetail.php?event=113964",
        "city": "Dieren",
        "elevation": "650m",
        "terrain": "trail",
        "lat": 52.0526703,
        "lng": 6.1014431
    },
    {
        "name": "Salomon Koning van Spanje Trail - 80km",
        "country": "Netherlands",
        "distance": "81km",
        "date": "11/05/2024",
        "url": "https://statistik.d-u-v.org/eventdetail.php?event=109119",
        "city": "Gulpen",
        "elevation": "2200m",
        "terrain": "trail",
        "lat": 50.8139879,
        "lng": 5.8899585
    },
    {
        "name": "3 Pallas 67 Ultrameerdaagse - stage 4 - Arnhem - Veluwe",
        "country": "Netherlands",
        "distance": "51km",
        "date": "11/05/2024",
        "url": "https://statistik.d-u-v.org/eventdetail.php?event=105649",
        "city": "Arnhem",
        "elevation": "67m",
        "lat": 51.984257,
        "lng": 5.9108573
    },
    {
        "name": "3 Pallas 67 Ultrameerdaagse - stage 3 - Arnhem - Lobith",
        "country": "Netherlands",
        "distance": "66km",
        "date": "10/05/2024",
        "url": "https://statistik.d-u-v.org/eventdetail.php?event=105648",
        "city": "Arnhem",
        "elevation": "67m",
        "lat": 51.984257,
        "lng": 5.9108573
    },
    {
        "name": "3 Pallas 67 Ultrameerdaagse - stage 2 - Arnhem - Doesburg",
        "country": "Netherlands",
        "distance": "51km",
        "date": "09/05/2024",
        "url": "https://statistik.d-u-v.org/eventdetail.php?event=105647",
        "city": "Arnhem",
        "elevation": "67m",
        "lat": 51.984257,
        "lng": 5.9108573
    },
    {
        "name": "3 Pallas 67 Ultrameerdaagse - stage 1 - Wageningen - Arnhem",
        "country": "Netherlands",
        "distance": "51km",
        "date": "08/05/2024",
        "url": "https://statistik.d-u-v.org/eventdetail.php?event=105646",
        "city": "Wageningen",
        "elevation": "67m",
        "lat": 51.9663016,
        "lng": 5.6662814
    },
    {
        "name": "3. Petranpad Ultra Trail 60k",
        "country": "Netherlands",
        "distance": "64km",
        "date": "04/05/2024",
        "url": "https://statistik.d-u-v.org/eventdetail.php?event=101059",
        "city": "Meerlo",
        "elevation": "150m",
        "terrain": "trail",
        "lat": 51.51187,
        "lng": 6.0869555
    },
    {
        "name": "5 Petranpad Ultra Run 112k",
        "country": "Netherlands",
        "distance": "112km",
        "date": "04/05/2024",
        "url": "https://statistik.d-u-v.org/eventdetail.php?event=101060",
        "city": "Meerlo",
        "elevation": "300m",
        "terrain": "trail",
        "lat": 51.51187,
        "lng": 6.0869555
    },
    {
        "name": "38e Eemlake Run (Eemmeerloop)",
        "country": "Netherlands",
        "distance": "50km",
        "date": "20/04/2024",
        "url": "https://statistik.d-u-v.org/eventdetail.php?event=106907",
        "city": "Bunschoten",
        "elevation": "12m",
        "terrain": "trail",
        "lat": 52.2391743,
        "lng": 5.3734101
    },
    {
        "name": "Pegasus Ultra Trail",
        "country": "Netherlands",
        "distance": "50km",
        "date": "20/04/2024",
        "url": "https://statistik.d-u-v.org/eventdetail.php?event=106723",
        "city": "Ede",
        "elevation": "250m",
        "terrain": "trail",
        "lat": 52.0716826,
        "lng": 5.7455106
    },
    {
        "name": "Runforestrun Hart van Drenthe",
        "country": "Netherlands",
        "distance": "52km",
        "date": "13/04/2024",
        "url": "https://statistik.d-u-v.org/eventdetail.php?event=97613",
        "city": "Ellertshaar",
        "elevation": "500m",
        "terrain": "trail",
        "lat": 52.8964673,
        "lng": 6.7409769
    },
    {
        "name": "Cauberg Trail",
        "country": "Netherlands",
        "distance": "54km",
        "date": "30/03/2024",
        "url": "https://statistik.d-u-v.org/eventdetail.php?event=97954",
        "city": "Valkenburg",
        "elevation": "1400m",
        "terrain": "trail",
        "lat": 50.8647531,
        "lng": 5.8312518
    },
    {
        "name": "3 6hrs Sittard - 50km Split",
        "country": "Netherlands",
        "distance": "50km",
        "date": "24/03/2024",
        "url": "https://statistik.d-u-v.org/eventdetail.php?event=106060",
        "city": "Sittard",
        "terrain": "road",
        "lat": 50.9974235,
        "lng": 5.8666627
    },
    {
        "name": "17e De Zestig van Texel",
        "country": "Netherlands",
        "distance": "60km",
        "date": "24/03/2024",
        "url": "https://statistik.d-u-v.org/eventdetail.php?event=105828",
        "city": "Den Hoorn (Texel)",
        "terrain": "trail"
    },
    {
        "name": "17e De 120 van Texel",
        "country": "Netherlands",
        "distance": "120km",
        "date": "24/03/2024",
        "url": "https://statistik.d-u-v.org/eventdetail.php?event=105829",
        "city": "Den Burg (Texel)",
        "elevation": "13m",
        "terrain": "trail"
    },
    {
        "name": "3. 6hrs Sittard",
        "country": "Netherlands",
        "distance": "6h",
        "date": "24/03/2024",
        "url": "https://statistik.d-u-v.org/eventdetail.php?event=99486",
        "city": "Sittard",
        "terrain": "road",
        "lat": 50.9974235,
        "lng": 5.8666627
    },
    {
        "name": "3. 24hrs Sittard - 50km Split",
        "country": "Netherlands",
        "distance": "50km",
        "date": "23/03/2024",
        "url": "https://statistik.d-u-v.org/eventdetail.php?event=106057",
        "city": "Sittard",
        "terrain": "road",
        "lat": 50.9974235,
        "lng": 5.8666627
    },
    {
        "name": "4. 12hrs Sittard - 50km Split",
        "country": "Netherlands",
        "distance": "50km",
        "date": "23/03/2024",
        "url": "https://statistik.d-u-v.org/eventdetail.php?event=106062",
        "city": "Sittard",
        "terrain": "road",
        "lat": 50.9974235,
        "lng": 5.8666627
    },
    {
        "name": "10e Salomon Vuurtorentrail Festival Ameland 60km",
        "country": "Netherlands",
        "distance": "60km",
        "date": "17/03/2024",
        "url": "https://statistik.d-u-v.org/eventdetail.php?event=97000",
        "city": "Hollum Ameland",
        "terrain": "trail"
    },
    {
        "name": "11. SallandTrail 80 km (50 Mijl)",
        "country": "Netherlands",
        "distance": "80km",
        "date": "09.03.2024",
        "url": "https://statistik.d-u-v.org/eventdetail.php?event=106217",
        "city": "Nijverdal",
        "lat": 52.3592015,
        "lng": 6.4654075
    },
    {
        "name": "11. SallandTrail 50 km",
        "country": "Netherlands",
        "distance": "50km",
        "date": "09/03/2024",
        "url": "https://statistik.d-u-v.org/eventdetail.php?event=106218",
        "city": "Nijverdal",
        "elevation": "350m",
        "terrain": "trail",
        "lat": 52.3592015,
        "lng": 6.4654075
    },
    {
        "name": "Trailrun Terschelling",
        "country": "Netherlands",
        "distance": "50km",
        "date": "03/03/2024",
        "url": "https://statistik.d-u-v.org/eventdetail.php?event=102154",
        "city": "West-Terschelling",
        "terrain": "trail",
        "lat": 53.3613027,
        "lng": 5.2160421
    },
    {
        "name": "3 65 van Walcheren",
        "country": "Netherlands",
        "distance": "65km",
        "date": "03/03/2024",
        "url": "https://statistik.d-u-v.org/eventdetail.php?event=106147",
        "city": "Vrouwenpolder",
        "terrain": "trail",
        "lat": 51.576602,
        "lng": 3.6165776
    },
    {
        "name": "5. Bosbokken Trail",
        "country": "Netherlands",
        "distance": "47km",
        "date": "25/02/2024",
        "url": "https://statistik.d-u-v.org/eventdetail.php?event=105519",
        "city": "Burgh-Haamstede",
        "elevation": "487m",
        "terrain": "trail",
        "lat": 51.7022441,
        "lng": 3.722061
    },
    {
        "name": "Dutch Coast Ultra Run by Night 50km",
        "country": "Netherlands",
        "distance": "50km",
        "date": "09/02/2024",
        "url": "https://statistik.d-u-v.org/eventdetail.php?event=105018",
        "city": "Den Helder",
        "elevation": "20m",
        "terrain": "trail",
        "lat": 52.9529894,
        "lng": 4.8267592
    },
    {
        "name": "Dutch Coast Ultra Run by Night 75km",
        "country": "Netherlands",
        "distance": "75km",
        "date": "09/02/2024",
        "url": "https://statistik.d-u-v.org/eventdetail.php?event=105019",
        "city": "Den Helder",
        "elevation": "50m",
        "terrain": "trail",
        "lat": 52.9529894,
        "lng": 4.8267592
    },
    {
        "name": "2de Hel van Westeremden, een klein paradijs",
        "country": "Netherlands",
        "distance": "45km",
        "date": "25/05/2024",
        "url": "https://statistik.d-u-v.org/eventdetail.php?event=106243",
        "city": "Sint Annen",
        "terrain": "road",
        "lat": 53.2979462,
        "lng": 6.6652567
    },
    {
        "name": "VAM12",
        "country": "Netherlands",
        "distance": "12h",
        "date": "25/05/2024",
        "url": "https://statistik.d-u-v.org/eventdetail.php?event=99640",
        "city": "Wijster",
        "elevation": "100m",
        "terrain": "road",
        "lat": 52.8148592,
        "lng": 6.5163531
    },
    {
        "name": "VAM8",
        "country": "Netherlands",
        "distance": "8h",
        "date": "25/05/2024",
        "url": "https://statistik.d-u-v.org/eventdetail.php?event=107903",
        "city": "Wijster",
        "elevation": "100m",
        "terrain": "road",
        "lat": 52.8148592,
        "lng": 6.5163531
    },
    {
        "name": "5th Drielandenpunt Winter Trail",
        "country": "Netherlands",
        "distance": "50km",
        "date": "04/02/2024",
        "url": "https://statistik.d-u-v.org/eventdetail.php?event=102041",
        "city": "Vaals",
        "elevation": "1640m",
        "terrain": "trail",
        "lat": 50.7781016,
        "lng": 5.9810696
    },
    {
        "name": "12-Uurs Run Middelburg",
        "country": "Netherlands",
        "distance": "13h",
        "date": "25/05/2024",
        "url": "https://statistik.d-u-v.org/eventdetail.php?event=107229",
        "city": "Middelburg",
        "elevation": "20m",
        "lat": 51.4996784,
        "lng": 3.6137371
    },
    {
        "name": "Leenderbos Ultra Trail",
        "country": "Netherlands",
        "distance": "50km",
        "date": "28/01/2024",
        "url": "https://statistik.d-u-v.org/eventdetail.php?event=108289",
        "city": "Leende",
        "elevation": "100m",
        "terrain": "trail",
        "lat": 51.3484037,
        "lng": 5.5518897
    },
    {
        "name": "11. Pierewaai Trail",
        "country": "Netherlands",
        "distance": "45km",
        "date": "20/01/2024",
        "url": "https://statistik.d-u-v.org/eventdetail.php?event=98648",
        "city": "IJmuiden",
        "elevation": "540m",
        "terrain": "trail",
        "lat": 52.4574236,
        "lng": 4.6111981
    },
    {
        "name": "18. Sri Chinmoy 50 km-Lauf Amsterdam",
        "country": "Netherlands",
        "distance": "50km",
        "date": "24/05/2024",
        "url": "https://statistik.d-u-v.org/eventdetail.php?event=108136",
        "city": "Amstelveen",
        "terrain": "road",
        "lat": 52.3028209,
        "lng": 4.8596844
    },
    {
        "name": "18. Sri Chinmoy 100km-Lauf Amsterdam",
        "country": "Netherlands",
        "distance": "100km",
        "date": "24/05/2024",
        "url": "https://statistik.d-u-v.org/eventdetail.php?event=108137",
        "city": "Amstelveen",
        "terrain": "road",
        "lat": 52.3028209,
        "lng": 4.8596844
    },
    {
        "name": "3 Pallas 67 Ultrameerdaagse - stage 5 - Arnhem - Wageningen",
        "country": "Netherlands",
        "distance": "51km",
        "date": "12/05/2024",
        "url": "https://statistik.d-u-v.org/eventdetail.php?event=105650",
        "city": "Arnhem",
        "elevation": "67m",
        "lat": 51.984257,
        "lng": 5.9108573
    },
    {
        "name": "Voorne's Duin Trail",
        "country": "Netherlands",
        "distance": "27 km",
        "date": "07/12/2025",
        "url": "https://www.voornesduintrail.nl",
        "city": "Oostvoorne",
        "terrain": "trail",
        "lat": 51.914271,
        "lng": 4.1038932
    },
    {
        "name": "Friends of the SM run ultra",
        "country": "Netherlands",
        "distance": "47 km",
        "date": "23/08/2026",
        "url": "http://www.bemelenbeweegt.nl",
        "city": "Meerssen",
        "lat": 50.9047092,
        "lng": 5.7352078
    },
    {
        "name": "West Coast Challenge - Halfway",
        "country": "Netherlands",
        "distance": "62 km",
        "date": "13/12/2025",
        "url": "https://www.westcoastchallenge.nl/",
        "city": "Wijk aan Zee",
        "lat": 52.4939272,
        "lng": 4.593759
    },
    {
        "name": "UHUT UtrechtseHeuvelUltratrail - Doorn Loop",
        "country": "Netherlands",
        "distance": "50km",
        "date": "30.11.2025",
        "url": "https://www.trail-events.eu/EVENT-Utrechtse-Heuvelrug-Ultra-Trail-Winter-UHUT100-29-11-2025",
        "city": "Leersum",
        "terrain": "trail",
        "lat": 52.0102642,
        "lng": 5.4332757
    },
    {
        "name": "Fun Runner",
        "country": "Netherlands",
        "distance": "50.1km",
        "date": "19/04/2026",
        "url": "http://funrunner-heerlen.nl",
        "city": "Berg en Dal",
        "lat": 51.8113566,
        "lng": 5.9170257
    },
    {
        "name": "4. Gaasterland Trail",
        "country": "Netherlands",
        "distance": "50km",
        "date": "25/10/2025",
        "url": "https://gaasterlandtrail.nl/",
        "city": "Harich",
        "terrain": "trail",
        "lat": 52.902242,
        "lng": 5.5642127
    },
    {
        "name": "Brekeld Runners Trail",
        "country": "Netherlands",
        "distance": "50km",
        "date": "03/10/2026",
        "url": "https://www.brekeldrunnerstrail.nl/",
        "city": "Rijssen",
        "elevation": "100m",
        "terrain": "trail",
        "lat": 52.3080276,
        "lng": 6.5213004
    },
    {
        "name": "Zevenheuvelentrail - NK trailrunning lange trail",
        "country": "Netherlands",
        "distance": "56km",
        "date": "27.09.2025",
        "url": "https://www.zevenheuvelentrail.nl/nk-trailrunning",
        "city": "Heilig Landstichting",
        "terrain": "trail",
        "lat": 51.8171099,
        "lng": 5.8916867
    },
    {
        "name": "Zevenheuvelentrail",
        "country": "Netherlands",
        "distance": "56km",
        "date": "27.09.2025",
        "url": "https://www.zevenheuvelentrail.nl/",
        "city": "Heilig Landstichting",
        "lat": 51.8171099,
        "lng": 5.8916867
    },
    {
        "name": "Indian Summer Ultra 50 km",
        "country": "Netherlands",
        "distance": "100 KM",
        "date": "50/75/100",
        "url": "http://indiansummerultra.nl",
        "city": "Gasselte",
        "terrain": "trail",
        "lat": 52.971916,
        "lng": 6.7921853
    },
    {
        "name": "Indian Summer Ultra 75 km",
        "country": "Netherlands",
        "distance": "100 KM",
        "date": "50/75/100",
        "url": "http://indiansummerultra.nl",
        "city": "Gasselte",
        "terrain": "trail",
        "lat": 52.971916,
        "lng": 6.7921853
    },
    {
        "name": "18. Sri Chinmoy 6-Stunden-Lauf Amsterdam",
        "country": "Netherlands",
        "distance": "50km",
        "date": "27/09/2025",
        "url": "http://nl.srichinmoyraces.org/",
        "city": "Amstelveen",
        "terrain": "track",
        "lat": 52.3028209,
        "lng": 4.8596844
    },
    {
        "name": "Doelgericht deur Stad",
        "country": "Netherlands",
        "distance": "50km",
        "date": "04/10/2025",
        "url": "https://ultragrunnen.nl/doelgericht-deur-stad/",
        "city": "Groningen",
        "lat": 53.2190652,
        "lng": 6.5680077
    },
    {
        "name": "Devil's Ultra",
        "country": "Netherlands",
        "distance": "24h",
        "date": "04/10/2026",
        "url": "https://devilstrail.nl/evenementen/devils-trail-utrechtse-heuvelrug/",
        "city": "Doornse",
        "elevation": "12m",
        "terrain": "trail"
    },
    {
        "name": "Ommetjesultra 55km",
        "country": "Netherlands",
        "distance": "55km",
        "date": "07.09.2025",
        "url": "https://ommetjesultra.nl",
        "city": "Wijchen",
        "lat": 51.8202529,
        "lng": 5.6960903
    },
    {
        "name": "1 Groote Heide Ultra",
        "country": "Netherlands",
        "distance": "50km",
        "date": "30.08.2025",
        "url": "https://www.trail-events.eu/EVENT-Groote-Heide-Ultra-30-08-2025",
        "city": "Leende, Noord-Brabant"
    },
    {
        "name": "Fun Runner",
        "country": "Netherlands",
        "distance": "47.4km",
        "date": "19/04/2026",
        "url": "http://funrunner-heerlen.nl",
        "city": "Berg en Dal",
        "lat": 51.8113566,
        "lng": 5.9170257
    },
    {
        "name": "Dutch Backyard Ultra",
        "country": "Netherlands",
        "distance": "36h",
        "date": "18.10.2025",
        "url": "https://www.trail-events.eu/EVENT-Dutch-Backyard-Ultra-10-2025#/",
        "city": "Zeewolde",
        "lat": 52.331111,
        "lng": 5.5430312
    },
    {
        "name": "UHUT UtrechtseHeuvelUltratrail - Rhenen Loop",
        "country": "Netherlands",
        "distance": "50km",
        "date": "29.11.2025",
        "url": "https://www.trail-events.eu/EVENT-Utrechtse-Heuvelrug-Ultra-Trail-Winter-UHUT100-29-11-2025",
        "city": "Leersum",
        "terrain": "trail",
        "lat": 52.0102642,
        "lng": 5.4332757
    },
    {
        "name": "7. Graef Castricum Trail Ultra 60km",
        "country": "Netherlands",
        "distance": "11 km",
        "date": "12/07/2026",
        "url": "https://cairnadventures.nl/trail/graef-castricum-trail/",
        "city": "Castricum",
        "terrain": "trail",
        "lat": 52.5496739,
        "lng": 4.6696185
    },
    {
        "name": "49. RUN Winschoten 50 km",
        "country": "Netherlands",
        "distance": "50km",
        "date": "12/09/2026",
        "url": "http://www.runwinschoten.nl",
        "city": "Winschoten",
        "lat": 53.143001,
        "lng": 7.0380717
    },
    {
        "name": "Pegasus Ultra Trail",
        "country": "Netherlands",
        "distance": "50km",
        "date": "04/10/2025",
        "url": "http://www.trailclub.nl",
        "city": "Ede",
        "terrain": "trail",
        "lat": 52.0716826,
        "lng": 5.7455106
    },
    {
        "name": "Indian Summer Ultra 100 km",
        "country": "Netherlands",
        "distance": "100 KM",
        "date": "50/75/100",
        "url": "http://indiansummerultra.nl",
        "city": "Gasselte",
        "terrain": "trail",
        "lat": 52.971916,
        "lng": 6.7921853
    },
    {
        "name": "49. RUN Winschoten 100 km",
        "country": "Netherlands",
        "distance": "100km",
        "date": "12/09/2026",
        "url": "http://www.runwinschoten.nl",
        "city": "Winschoten",
        "lat": 53.143001,
        "lng": 7.0380717
    },
    {
        "name": "Cauberg Trail - winter edition",
        "country": "Netherlands",
        "distance": "54km",
        "date": "04/01/2025",
        "url": "https://statistik.d-u-v.org/eventdetail.php?event=114475",
        "city": "Valkenburg",
        "elevation": "1400m",
        "terrain": "trail",
        "lat": 50.8647531,
        "lng": 5.8312518
    },
    {
        "name": "West Coast Challenge - Halfway",
        "country": "Netherlands",
        "distance": "62km",
        "date": "18/01/2025",
        "url": "https://statistik.d-u-v.org/eventdetail.php?event=114788",
        "city": "Hoek van Holland",
        "terrain": "trail",
        "lat": 51.9771615,
        "lng": 4.1314526
    },
    {
        "name": "Pierewaai Trail Winter Ed. 50km",
        "country": "Netherlands",
        "distance": "50km",
        "date": "25/01/2025",
        "url": "https://statistik.d-u-v.org/eventdetail.php?event=110991",
        "city": "Hoek van Holland",
        "elevation": "150m",
        "terrain": "trail",
        "lat": 51.9771615,
        "lng": 4.1314526
    },
    {
        "name": "Leenderbos Ultra Trail",
        "country": "Netherlands",
        "distance": "50km",
        "date": "26/01/2025",
        "url": "https://statistik.d-u-v.org/eventdetail.php?event=115460",
        "city": "Leende",
        "elevation": "135m",
        "terrain": "trail",
        "lat": 51.3484037,
        "lng": 5.5518897
    },
    {
        "name": "6th Drielandenpunt Winter Trail",
        "country": "Netherlands",
        "distance": "50km",
        "date": "02/02/2025",
        "url": "https://statistik.d-u-v.org/eventdetail.php?event=117447",
        "city": "Vaals",
        "elevation": "1640m",
        "terrain": "trail",
        "lat": 50.7781016,
        "lng": 5.9810696
    },
    {
        "name": "13th Dutch Coast Ultra Run by Night 75km",
        "country": "Netherlands",
        "distance": "75km",
        "date": "07/02/2025",
        "url": "https://statistik.d-u-v.org/eventdetail.php?event=115156",
        "city": "Den Helder",
        "elevation": "300m",
        "terrain": "trail",
        "lat": 52.9529894,
        "lng": 4.8267592
    },
    {
        "name": "13th Dutch Coast Ultra Run by Night 50km",
        "country": "Netherlands",
        "distance": "50km",
        "date": "07/02/2025",
        "url": "https://statistik.d-u-v.org/eventdetail.php?event=115155",
        "city": "Den Helder",
        "elevation": "300m",
        "terrain": "trail",
        "lat": 52.9529894,
        "lng": 4.8267592
    },
    {
        "name": "WoldjerspoorZoeker",
        "country": "Netherlands",
        "distance": "50km",
        "date": "23/02/2025",
        "url": "https://statistik.d-u-v.org/eventdetail.php?event=111349",
        "city": "Delfzijl",
        "terrain": "road",
        "lat": 53.3325644,
        "lng": 6.9135144
    },
    {
        "name": "Amerongse Berg Ultra 50k",
        "country": "Netherlands",
        "distance": "50km",
        "date": "23/02/2025",
        "url": "https://statistik.d-u-v.org/eventdetail.php?event=118151",
        "city": "Overberg",
        "elevation": "750m",
        "terrain": "trail",
        "lat": 52.0390484,
        "lng": 5.4964645
    },
    {
        "name": "6. Bosbokken Trail",
        "country": "Netherlands",
        "distance": "47km",
        "date": "23/02/2025",
        "url": "https://statistik.d-u-v.org/eventdetail.php?event=117762",
        "city": "Burgh-Haamstede",
        "elevation": "487m",
        "terrain": "trail",
        "lat": 51.7022441,
        "lng": 3.722061
    },
    {
        "name": "4 65 van Walcheren",
        "country": "Netherlands",
        "distance": "65km",
        "date": "02.03.2025",
        "url": "https://statistik.d-u-v.org/eventdetail.php?event=117763",
        "city": "Vrouwenpolder",
        "lat": 51.576602,
        "lng": 3.6165776
    },
    {
        "name": "12. SallandTrail 60 km",
        "country": "Netherlands",
        "distance": "60km",
        "date": "08.03.2025",
        "url": "https://statistik.d-u-v.org/eventdetail.php?event=117766",
        "city": "Nijverdal",
        "lat": 52.3592015,
        "lng": 6.4654075
    },
    {
        "name": "12. SallandTrail 50 km",
        "country": "Netherlands",
        "distance": "50km",
        "date": "08.03.2025",
        "url": "https://statistik.d-u-v.org/eventdetail.php?event=117765",
        "city": "Nijverdal",
        "lat": 52.3592015,
        "lng": 6.4654075
    },
    {
        "name": "12. SallandTrail 80 km (50 Mijl)",
        "country": "Netherlands",
        "distance": "80km",
        "date": "08.03.2025",
        "url": "https://statistik.d-u-v.org/eventdetail.php?event=117764",
        "city": "Nijverdal",
        "lat": 52.3592015,
        "lng": 6.4654075
    },
    {
        "name": "11e Salomon Vuurtorentrail Festival Ameland 60km",
        "country": "Netherlands",
        "distance": "60km",
        "date": "16.03.2025",
        "url": "https://statistik.d-u-v.org/eventdetail.php?event=117926",
        "city": "Hollum Ameland"
    },
    {
        "name": "Brabantse Vennen Ultra",
        "country": "Netherlands",
        "distance": "50km",
        "date": "29.03.2025",
        "url": "https://statistik.d-u-v.org/eventdetail.php?event=122220",
        "city": "Heeze / Noord-Brabant"
    },
    {
        "name": "5. Dinah Might 50 Miles Ultra Run",
        "country": "Netherlands",
        "distance": "80km",
        "date": "05.04.2025",
        "url": "https://statistik.d-u-v.org/eventdetail.php?event=114301",
        "city": "Emmeloord",
        "lat": 52.7087448,
        "lng": 5.7466367
    },
    {
        "name": "5. Dinah Might 100km Ultra Run",
        "country": "Netherlands",
        "distance": "100km",
        "date": "05.04.2025",
        "url": "https://statistik.d-u-v.org/eventdetail.php?event=114505",
        "city": "Emmeloord",
        "lat": 52.7087448,
        "lng": 5.7466367
    },
    {
        "name": "Stadspark Ultra",
        "country": "Netherlands",
        "distance": "6h",
        "date": "11.04.2025",
        "url": "https://statistik.d-u-v.org/eventdetail.php?event=117977",
        "city": "Groningen",
        "lat": 53.2190652,
        "lng": 6.5680077
    },
    {
        "name": "39e Eemlake Run (Eemmeerloop)",
        "country": "Netherlands",
        "distance": "50km",
        "date": "12.04.2025",
        "url": "https://statistik.d-u-v.org/eventdetail.php?event=117784",
        "city": "Bunschoten",
        "lat": 52.2391743,
        "lng": 5.3734101
    },
    {
        "name": "Runforestrun Hart van Drenthe",
        "country": "Netherlands",
        "distance": "52km",
        "date": "12.04.2025",
        "url": "https://statistik.d-u-v.org/eventdetail.php?event=117783",
        "city": "Ellertshaar",
        "lat": 52.8964673,
        "lng": 6.7409769
    },
    {
        "name": "Hollands Duin Ultra",
        "country": "Netherlands",
        "distance": "50km",
        "date": "26.04.2025",
        "url": "https://statistik.d-u-v.org/eventdetail.php?event=122221",
        "city": "Noordwijk",
        "lat": 52.2410856,
        "lng": 4.4461969
    },
    {
        "name": "6 Petranpad Ultra Run 112k",
        "country": "Netherlands",
        "distance": "112km",
        "date": "02.05.2025",
        "url": "https://statistik.d-u-v.org/eventdetail.php?event=117786",
        "city": "Meerlo",
        "lat": 51.51187,
        "lng": 6.0869555
    },
    {
        "name": "4. 6hrs Sittard",
        "country": "Netherlands",
        "distance": "6h",
        "date": "04.05.2025",
        "url": "https://statistik.d-u-v.org/eventdetail.php?event=113008",
        "city": "Sittard",
        "lat": 50.9974235,
        "lng": 5.8666627
    },
    {
        "name": "4. 6hrs Sittard - 50km Split",
        "country": "Netherlands",
        "distance": "50km",
        "date": "04.05.2025",
        "url": "https://statistik.d-u-v.org/eventdetail.php?event=118815",
        "city": "Sittard",
        "lat": 50.9974235,
        "lng": 5.8666627
    },
    {
        "name": "Salomon Koning van Spanje Trail - 101km",
        "country": "Netherlands",
        "distance": "101km",
        "date": "17.05.2025",
        "url": "https://statistik.d-u-v.org/eventdetail.php?event=119505",
        "city": "Gulpen",
        "lat": 50.8139879,
        "lng": 5.8899585
    },
    {
        "name": "Salomon Koning van Spanje Trail - 72km",
        "country": "Netherlands",
        "distance": "72km",
        "date": "17.05.2025",
        "url": "https://statistik.d-u-v.org/eventdetail.php?event=119504",
        "city": "Gulpen",
        "lat": 50.8139879,
        "lng": 5.8899585
    },
    {
        "name": "UHUT UtrechtseHeuvelUltratrail 100km",
        "country": "Netherlands",
        "distance": "100km",
        "date": "24.05.2025",
        "url": "https://statistik.d-u-v.org/eventdetail.php?event=122021",
        "city": "Leersum",
        "lat": 52.0102642,
        "lng": 5.4332757
    },
    {
        "name": "UHUT UtrechtseHeuvelUltratrail 50km",
        "country": "Netherlands",
        "distance": "50km",
        "date": "24.05.2025",
        "url": "https://statistik.d-u-v.org/eventdetail.php?event=122020",
        "city": "Leersum",
        "lat": 52.0102642,
        "lng": 5.4332757
    },
    {
        "name": "19. Sri Chinmoy 50 km-Lauf Amsterdam",
        "country": "Netherlands",
        "distance": "50km",
        "date": "24.05.2025",
        "url": "https://statistik.d-u-v.org/eventdetail.php?event=117111",
        "city": "Amstelveen",
        "lat": 52.3028209,
        "lng": 4.8596844
    },
    {
        "name": "19. Sri Chinmoy 100km-Lauf Amsterdam",
        "country": "Netherlands",
        "distance": "100km",
        "date": "24.05.2025",
        "url": "https://statistik.d-u-v.org/eventdetail.php?event=117110",
        "city": "Amstelveen",
        "lat": 52.3028209,
        "lng": 4.8596844
    },
    {
        "name": "UHUT UtrechtseHeuvelUltratrail 75 km - Spring Edition",
        "country": "Netherlands",
        "distance": "75km",
        "date": "24.05.2025",
        "url": "https://statistik.d-u-v.org/eventdetail.php?event=122136",
        "city": "Leersum",
        "lat": 52.0102642,
        "lng": 5.4332757
    },
    {
        "name": "4 Pallas 67 Ultrameerdaagse - stage 1",
        "country": "Netherlands",
        "distance": "58km",
        "date": "28.05.2025",
        "url": "https://statistik.d-u-v.org/eventdetail.php?event=111942",
        "city": "Heerlen",
        "lat": 50.8876735,
        "lng": 5.9773285
    },
    {
        "name": "4 Pallas 67 Ultrameerdaagse - stage 2",
        "country": "Netherlands",
        "distance": "53.2km",
        "date": "29.05.2025",
        "url": "https://statistik.d-u-v.org/eventdetail.php?event=111943",
        "city": "Heerlen",
        "lat": 50.8876735,
        "lng": 5.9773285
    },
    {
        "name": "4 Pallas 67 Ultrameerdaagse - stage 3",
        "country": "Netherlands",
        "distance": "54.5km",
        "date": "30.05.2025",
        "url": "https://statistik.d-u-v.org/eventdetail.php?event=111944",
        "city": "Heerlen",
        "lat": 50.8876735,
        "lng": 5.9773285
    },
    {
        "name": "VAM8",
        "country": "Netherlands",
        "distance": "8h",
        "date": "31.05.2025",
        "url": "https://statistik.d-u-v.org/eventdetail.php?event=121197",
        "city": "Wijster",
        "lat": 52.8148592,
        "lng": 6.5163531
    },
    {
        "name": "VAM12",
        "country": "Netherlands",
        "distance": "12h",
        "date": "31.05.2025",
        "url": "https://statistik.d-u-v.org/eventdetail.php?event=121196",
        "city": "Wijster",
        "lat": 52.8148592,
        "lng": 6.5163531
    },
    {
        "name": "4 Pallas 67 Ultrameerdaagse - stage 4",
        "country": "Netherlands",
        "distance": "52.5km",
        "date": "31.05.2025",
        "url": "https://statistik.d-u-v.org/eventdetail.php?event=111945",
        "city": "Heerlen",
        "lat": 50.8876735,
        "lng": 5.9773285
    },
    {
        "name": "4 Pallas 67 Ultrameerdaagse - stage 5",
        "country": "Netherlands",
        "distance": "52km",
        "date": "01.06.2025",
        "url": "https://statistik.d-u-v.org/eventdetail.php?event=111946",
        "city": "Heerlen",
        "lat": 50.8876735,
        "lng": 5.9773285
    },
    {
        "name": "5 Linie1629ultra",
        "country": "Netherlands",
        "distance": "50km",
        "date": "07.06.2025",
        "url": "https://statistik.d-u-v.org/eventdetail.php?event=108097",
        "city": "Vught",
        "lat": 51.6511806,
        "lng": 5.2368001
    },
    {
        "name": "Dik doen in de Toen",
        "country": "Netherlands",
        "distance": "50km",
        "date": "09.06.2025",
        "url": "https://statistik.d-u-v.org/eventdetail.php?event=115340",
        "city": "Groningen",
        "lat": 53.2190652,
        "lng": 6.5680077
    },
    {
        "name": "Marathon van Kerkwerve",
        "country": "Netherlands",
        "distance": "45.8km",
        "date": "14.06.2025",
        "url": "https://statistik.d-u-v.org/eventdetail.php?event=120302",
        "city": "Kerkwerve",
        "lat": 51.6863988,
        "lng": 3.8994996
    },
    {
        "name": "4th Liberation Trail - stage 5: Eindhoven - Nijmegen",
        "country": "Netherlands",
        "distance": "81km",
        "date": "14.06.2025",
        "url": "https://statistik.d-u-v.org/eventdetail.php?event=119932",
        "city": "Eindhoven",
        "lat": 51.4392648,
        "lng": 5.478633
    },
    {
        "name": "12-Uurs Run Middelburg",
        "country": "Netherlands",
        "distance": "13h",
        "date": "20.06.2025",
        "url": "https://statistik.d-u-v.org/eventdetail.php?event=121991",
        "city": "Middelburg",
        "lat": 51.4996784,
        "lng": 3.6137371
    },
    {
        "name": "3. Rondom Stad",
        "country": "Netherlands",
        "distance": "70km",
        "date": "21.06.2025",
        "url": "https://statistik.d-u-v.org/eventdetail.php?event=114348",
        "city": "Sint Annen",
        "lat": 53.2979462,
        "lng": 6.6652567
    },
    {
        "name": "4 Pierewaai Summer Beach Trail",
        "country": "Netherlands",
        "distance": "50km",
        "date": "21.06.2025",
        "url": "https://statistik.d-u-v.org/eventdetail.php?event=118593",
        "city": "IJmuiden",
        "lat": 52.4574236,
        "lng": 4.6111981
    },
    {
        "name": "BUT100 (Brabants UltraTrail) - 100 km",
        "country": "Netherlands",
        "distance": "100km",
        "date": "28.06.2025",
        "url": "https://statistik.d-u-v.org/eventdetail.php?event=122230",
        "city": "Leende",
        "lat": 51.3484037,
        "lng": 5.5518897
    },
    {
        "name": "BUT100 (Brabants UltraTrail) - 75 km",
        "country": "Netherlands",
        "distance": "75km",
        "date": "28.06.2025",
        "url": "https://statistik.d-u-v.org/eventdetail.php?event=122229",
        "city": "Leende",
        "lat": 51.3484037,
        "lng": 5.5518897
    },
    {
        "name": "BUT100 (Brabants UltraTrail) - 50 km Noord",
        "country": "Netherlands",
        "distance": "50km",
        "date": "28.06.2025",
        "url": "https://statistik.d-u-v.org/eventdetail.php?event=122228",
        "city": "Leende",
        "lat": 51.3484037,
        "lng": 5.5518897
    },
    {
        "name": "BUT100 (Brabants UltraTrail) - 50 km Zuid",
        "country": "Netherlands",
        "distance": "50km",
        "date": "28.06.2025",
        "url": "https://statistik.d-u-v.org/eventdetail.php?event=122227",
        "city": "Leende",
        "lat": 51.3484037,
        "lng": 5.5518897
    },
    {
        "name": "24 Zes uur van de Haarlemmermeer",
        "country": "Netherlands",
        "distance": "6h",
        "date": "28.06.2025",
        "url": "https://statistik.d-u-v.org/eventdetail.php?event=108596",
        "city": "Hoofddorp",
        "lat": 52.305554,
        "lng": 4.6926644
    },
    {
        "name": "VechtdalTrail",
        "country": "Netherlands",
        "distance": "50km",
        "date": "05.07.2025",
        "url": "https://statistik.d-u-v.org/eventdetail.php?event=114502",
        "city": "Ommen",
        "lat": 52.510347,
        "lng": 6.4524247
    },
    {
        "name": "VUT100 (Veluwse Ultra Trail) - 100km",
        "country": "Netherlands",
        "distance": "100km",
        "date": "26.07.2025",
        "url": "https://statistik.d-u-v.org/eventdetail.php?event=122226",
        "city": "Elspeet",
        "lat": 52.2910649,
        "lng": 5.7884632
    },
    {
        "name": "VUT100 (Veluwse Ultra Trail) - 75km",
        "country": "Netherlands",
        "distance": "75km",
        "date": "26.07.2025",
        "url": "https://statistik.d-u-v.org/eventdetail.php?event=122225",
        "city": "Elspeet",
        "lat": 52.2910649,
        "lng": 5.7884632
    },
    {
        "name": "VUT100 (Veluwse Ultra Trail) - 50km noord",
        "country": "Netherlands",
        "distance": "50km",
        "date": "26.07.2025",
        "url": "https://statistik.d-u-v.org/eventdetail.php?event=122224",
        "city": "Elspeet",
        "lat": 52.2910649,
        "lng": 5.7884632
    },
    {
        "name": "VUT100 (Veluwse Ultra Trail) - 50km zuid",
        "country": "Netherlands",
        "distance": "50km",
        "date": "26.07.2025",
        "url": "https://statistik.d-u-v.org/eventdetail.php?event=122223",
        "city": "Elspeet",
        "lat": 52.2910649,
        "lng": 5.7884632
    },
    {
        "name": "Eddy 60 Ultra",
        "country": "Netherlands",
        "distance": "60km",
        "date": "27.07.2025",
        "url": "https://statistik.d-u-v.org/eventdetail.php?event=120471",
        "city": "Assen",
        "lat": 52.9952273,
        "lng": 6.560498
    },
    {
        "name": "landschapsloop: Noardlike Fryske Wâlden ultra 162 km",
        "country": "Netherlands",
        "distance": "30 km",
        "date": "26/04/2026",
        "url": "https://nfw100.frl/",
        "city": ""
    },
    {
        "name": "trailmarathon: Trail de la Crapule",
        "country": "Netherlands",
        "distance": "42 km",
        "date": "26/04/2026",
        "url": "https://www.lasnoisetrail.be/trail-de-la-crapule-2026",
        "city": "",
        "elevation": "800m",
        "terrain": "trail"
    },
    {
        "name": "trail: ULTRA LAT La Saint Remacle Legends Andennes Trail 195 km",
        "country": "Netherlands",
        "distance": "00 Km",
        "date": "01/05/2026",
        "url": "https://ultratiming.ledossard.com/inscription/index.php?id=3051",
        "city": "",
        "terrain": "trail"
    },
    {
        "name": "trail: LAT Legends Andennes Trail 63 en 111 km",
        "country": "Netherlands",
        "distance": "00 Km",
        "date": "01/05/2026",
        "url": "https://ultratiming.ledossard.com/inscription/index.php?id=3051",
        "city": "",
        "terrain": "trail"
    },
    {
        "name": "La Boucle Festival 2026",
        "country": "Netherlands",
        "distance": "60 km",
        "date": "30/05/2026",
        "url": "https://laboucle.co/",
        "city": ""
    },
    {
        "name": "MTC Macha 2026",
        "country": "Netherlands",
        "distance": "90 km",
        "date": "12/04/2019",
        "url": "https://en.wikipedia.org/wiki/Killarney_Provincial_Park",
        "city": "",
        "terrain": "trail"
    },
    {
        "name": "GravelMan Series Salagou 2027",
        "country": "Netherlands",
        "distance": "120km",
        "date": "10/04/2026",
        "url": "https://www.gravelmanseries.com/salagou2026",
        "city": "",
        "elevation": "100m",
        "terrain": "gravel"
    },
    {
        "name": "Maasduinen Ultra",
        "country": "Netherlands",
        "distance": "50",
        "date": "27 February 2027",
        "url": "https://www.trail-running.eu/en/events/maasduinen-ultra/",
        "city": "",
        "terrain": "trail",
        "utmb_index": true
    },
    {
        "name": "Austerlitz Ultra",
        "country": "Netherlands",
        "distance": "50",
        "date": "30 August 2026",
        "url": "https://www.trail-running.eu/en/events/austerlitz-ultra/",
        "city": "",
        "terrain": "trail",
        "utmb_index": true
    },
    {
        "name": "Dutch Backyard Ultra",
        "country": "Netherlands",
        "distance": "6",
        "date": "17 October 2026",
        "url": "https://www.trail-running.eu/en/events/dutch-backyard-ultra/",
        "city": "",
        "terrain": "trail"
    },
    {
        "name": "Dutch Backyard Ultra",
        "country": "Netherlands",
        "distance": "6",
        "date": "12 March 2027",
        "url": "https://www.trail-running.eu/en/events/dutch-backyard-ultra/",
        "city": "",
        "terrain": "trail"
    },
    {
        "name": "Dutch Backyard Ultra",
        "country": "Netherlands",
        "distance": "6",
        "date": "16 October 2027",
        "url": "https://www.trail-running.eu/en/events/dutch-backyard-ultra/",
        "city": "",
        "terrain": "trail"
    },
    {
        "name": "Groesbeek Trail",
        "country": "Netherlands",
        "distance": "30km",
        "date": "01 August 2026",
        "url": "https://www.trail-running.eu/en/events/groesbeek-trail/",
        "city": "",
        "terrain": "trail"
    },
    {
        "name": "Hooge Vuursche Trail",
        "country": "Netherlands",
        "distance": "12km",
        "date": "13 June 2026",
        "url": "https://www.trail-running.eu/en/events/hooge-vuursche-trail/",
        "city": "",
        "terrain": "trail"
    },
    {
        "name": "Stakenberg Trail",
        "country": "Netherlands",
        "distance": "34 km",
        "date": "15 August 2026",
        "url": "https://www.trail-running.eu/en/events/stakenberg-trail/",
        "city": "",
        "terrain": "trail"
    },
    {
        "name": "Lage Vuursche Ultra",
        "country": "Netherlands",
        "distance": "50",
        "date": "31 October 2026",
        "url": "https://www.trail-running.eu/en/events/lage-vuursche-ultra/",
        "city": "",
        "terrain": "trail",
        "utmb_index": true
    },
    {
        "name": "Gelderse Poort Ultra",
        "country": "Netherlands",
        "distance": "50",
        "date": "26 September 2026",
        "url": "https://www.trail-running.eu/en/events/gelderse-poort-ultra/",
        "city": "",
        "terrain": "trail",
        "utmb_index": true
    },
    {
        "name": "Petzl Night Trail",
        "country": "Netherlands",
        "distance": "6-12-18",
        "date": "02 October 2026",
        "url": "https://www.trail-running.eu/en/events/night-trail/",
        "city": "",
        "terrain": "trail"
    },
    {
        "name": "Petzl Night Trail",
        "country": "Netherlands",
        "distance": "6-12-18",
        "date": "05 February 2027",
        "url": "https://www.trail-running.eu/en/events/night-trail/",
        "city": "",
        "terrain": "trail"
    },
    {
        "name": "Petzl Night Trail",
        "country": "Netherlands",
        "distance": "6-12-18",
        "date": "01 October 2027",
        "url": "https://www.trail-running.eu/en/events/night-trail/",
        "city": "",
        "terrain": "trail"
    },
    {
        "name": "Hollands Duin Ultra",
        "country": "Netherlands",
        "distance": "50",
        "date": "19 December 2026",
        "url": "https://www.trail-running.eu/en/events/hollands-duin-ultra/",
        "city": "",
        "terrain": "trail"
    },
    {
        "name": "UHUT100 Winter",
        "country": "Netherlands",
        "distance": "50 km",
        "date": "28 November 2026",
        "url": "https://www.trail-running.eu/en/events/uhut100-winter/",
        "city": "",
        "elevation": "09m",
        "terrain": "trail",
        "utmb_index": true
    },
    {
        "name": "UHUT100 Winter",
        "country": "Netherlands",
        "distance": "50 km",
        "date": "29 November 2026",
        "url": "https://www.trail-running.eu/en/events/uhut100-winter/",
        "city": "",
        "elevation": "09m",
        "terrain": "trail",
        "utmb_index": true
    },
    {
        "name": "UHUT100 Winter",
        "country": "Netherlands",
        "distance": "50 km",
        "date": "27 November 2027",
        "url": "https://www.trail-running.eu/en/events/uhut100-winter/",
        "city": "",
        "elevation": "09m",
        "terrain": "trail",
        "utmb_index": true
    },
    {
        "name": "UHUT100 Winter",
        "country": "Netherlands",
        "distance": "50 km",
        "date": "28 November 2027",
        "url": "https://www.trail-running.eu/en/events/uhut100-winter/",
        "city": "",
        "elevation": "09m",
        "terrain": "trail",
        "utmb_index": true
    },
    {
        "name": "Leenderbos Ultra",
        "country": "Netherlands",
        "distance": "50",
        "date": "18 December 2027",
        "url": "https://www.trail-running.eu/en/events/leenderbos-ultra-trail/",
        "city": "",
        "terrain": "trail"
    },
    {
        "name": "Leersumse Veld Ultra",
        "country": "Netherlands",
        "distance": "50",
        "date": "30 January 2027",
        "url": "https://www.trail-running.eu/en/events/leersumse-veld-ultra/",
        "city": "",
        "elevation": "09m",
        "terrain": "trail"
    },
    {
        "name": "Veluwse Ultra Trail (VUT100)",
        "country": "Netherlands",
        "distance": "100km",
        "date": "25 July 2026",
        "url": "https://www.trail-running.eu/en/events/veluwse-ultra-trail-vut100/",
        "city": "",
        "terrain": "trail"
    },
    {
        "name": "Utrechtse Heuvelrug Ultra Trail (UHUT100)",
        "country": "Netherlands",
        "distance": "50km",
        "date": "30 May 2026",
        "url": "https://www.trail-running.eu/en/events/utrechtse-heuvelrug-ultra-trail-uhut100/",
        "city": "",
        "terrain": "trail"
    },
    {
        "name": "Utrechtse Heuvelrug Ultra Trail (UHUT100)",
        "country": "Netherlands",
        "distance": "50km",
        "date": "31 May 2026",
        "url": "https://www.trail-running.eu/en/events/utrechtse-heuvelrug-ultra-trail-uhut100/",
        "city": "",
        "terrain": "trail"
    },
    {
        "name": "Utrechtse Heuvelrug Ultra Trail (UHUT100)",
        "country": "Netherlands",
        "distance": "50km",
        "date": "29 May 2027",
        "url": "https://www.trail-running.eu/en/events/utrechtse-heuvelrug-ultra-trail-uhut100/",
        "city": "",
        "terrain": "trail"
    },
    {
        "name": "Utrechtse Heuvelrug Ultra Trail (UHUT100)",
        "country": "Netherlands",
        "distance": "50km",
        "date": "30 May 2027",
        "url": "https://www.trail-running.eu/en/events/utrechtse-heuvelrug-ultra-trail-uhut100/",
        "city": "",
        "terrain": "trail"
    },
    {
        "name": "Sint Anthonis Trail",
        "country": "Netherlands",
        "distance": "11km",
        "date": "16 January 2027",
        "url": "https://www.trail-running.eu/en/events/sint-anthonis-trail/",
        "city": "",
        "terrain": "trail"
    },
    {
        "name": "Leersumse Veld Trail",
        "country": "Netherlands",
        "distance": "11km",
        "date": "03 October 2026",
        "url": "https://www.trail-running.eu/en/events/leersumse-veld-trail/",
        "city": "",
        "elevation": "50m",
        "terrain": "trail"
    },
    {
        "name": "Leersumse Veld Trail",
        "country": "Netherlands",
        "distance": "11km",
        "date": "06 February 2027",
        "url": "https://www.trail-running.eu/en/events/leersumse-veld-trail/",
        "city": "",
        "elevation": "50m",
        "terrain": "trail"
    },
    {
        "name": "Leersumse Veld Trail",
        "country": "Netherlands",
        "distance": "11km",
        "date": "02 October 2027",
        "url": "https://www.trail-running.eu/en/events/leersumse-veld-trail/",
        "city": "",
        "elevation": "50m",
        "terrain": "trail"
    },
    {
        "name": "Leenderbos Trail",
        "country": "Netherlands",
        "distance": "28km",
        "date": "05 July 2026",
        "url": "https://www.trail-running.eu/en/events/leenderbos-trail/",
        "city": "",
        "terrain": "trail"
    },
    {
        "name": "Lage Vuursche Trail",
        "country": "Netherlands",
        "distance": "34km",
        "date": "20/11/2022",
        "url": "https://www.trail-running.eu/en/events/lage-vuursche-trail/",
        "city": "",
        "terrain": "trail"
    },
    {
        "name": "Kempenland Trail",
        "country": "Netherlands",
        "distance": "25km",
        "date": "19 September 2026",
        "url": "https://www.trail-running.eu/en/events/kempenland-trail/",
        "city": "",
        "terrain": "trail"
    },
    {
        "name": "Hollands Duin Trail",
        "country": "Netherlands",
        "distance": "30km",
        "date": "21 November 2026",
        "url": "https://www.trail-running.eu/en/events/hollands-duin-trail/",
        "city": "",
        "terrain": "trail"
    },
    {
        "name": "Brabantse Ultra Trail (BUT100)",
        "country": "Netherlands",
        "distance": "50km",
        "date": "27 June 2026",
        "url": "https://www.trail-running.eu/en/events/brabantse-ultra-trail-but100/",
        "city": "",
        "elevation": "190m",
        "terrain": "trail",
        "utmb_index": true
    },
    {
        "name": "Brabantse Ultra Trail (BUT100)",
        "country": "Netherlands",
        "distance": "50km",
        "date": "28 June 2026",
        "url": "https://www.trail-running.eu/en/events/brabantse-ultra-trail-but100/",
        "city": "",
        "elevation": "190m",
        "terrain": "trail",
        "utmb_index": true
    },
    {
        "name": "Brabantse Ultra Trail (BUT100)",
        "country": "Netherlands",
        "distance": "50km",
        "date": "26 June 2027",
        "url": "https://www.trail-running.eu/en/events/brabantse-ultra-trail-but100/",
        "city": "",
        "elevation": "190m",
        "terrain": "trail",
        "utmb_index": true
    },
    {
        "name": "Brabantse Ultra Trail (BUT100)",
        "country": "Netherlands",
        "distance": "50km",
        "date": "27 June 2027",
        "url": "https://www.trail-running.eu/en/events/brabantse-ultra-trail-but100/",
        "city": "",
        "elevation": "190m",
        "terrain": "trail",
        "utmb_index": true
    },
    {
        "name": "Brabantse Kluis Trail",
        "country": "Netherlands",
        "distance": "30 km",
        "date": "06 December 2026",
        "url": "https://www.trail-running.eu/en/events/brabantse-kluis-trail/",
        "city": "",
        "terrain": "trail"
    },
    {
        "name": "Brabantse Kluis Trail",
        "country": "Netherlands",
        "distance": "30 km",
        "date": "04 December 2027",
        "url": "https://www.trail-running.eu/en/events/brabantse-kluis-trail/",
        "city": "",
        "terrain": "trail"
    },
    {
        "name": "Austerlitz Trail",
        "country": "Netherlands",
        "distance": "35 km",
        "date": "09 May 2026",
        "url": "https://www.trail-running.eu/en/events/austerlitz-trail/",
        "city": "",
        "terrain": "trail"
    },
    {
        "name": "Austerlitz Trail",
        "country": "Netherlands",
        "distance": "35 km",
        "date": "10 May 2026",
        "url": "https://www.trail-running.eu/en/events/austerlitz-trail/",
        "city": "",
        "terrain": "trail"
    },
    {
        "name": "Austerlitz Trail",
        "country": "Netherlands",
        "distance": "35 km",
        "date": "29 August 2026",
        "url": "https://www.trail-running.eu/en/events/austerlitz-trail/",
        "city": "",
        "terrain": "trail"
    },
    {
        "name": "Amerongse Berg Trail",
        "country": "Netherlands",
        "distance": "12km",
        "date": "12 July 2026",
        "url": "https://www.trail-running.eu/en/events/amerongse-berg-trail/",
        "city": "",
        "terrain": "trail"
    },
    {
        "name": "Amerongse Berg Trail",
        "country": "Netherlands",
        "distance": "12km",
        "date": "11 October 2026",
        "url": "https://www.trail-running.eu/en/events/amerongse-berg-trail/",
        "city": "",
        "terrain": "trail"
    }
]