[
    {
        "name": "Bastogne - Wiltz - Bastogne",
        "country": "Belgium",
        "distance": "72km",
        "date": "29.12.2024",
        "url": "https://www.trailrun.be/bastogne-wiltz-bastogne/",
        "city": "Bastogne",
        "lat": 50.0023102,
        "lng": 5.7173386
    },
    {
        "name": "The Bello Gallico Trail 50mi",
        "country": "Belgium",
        "distance": "50mi",
        "date": "15.12.2024",
        "url": "https://www.bellogallico.be/",
        "city": "Oud-Heverlee",
        "lat": 50.8376275,
        "lng": 4.6629253
    },
    {
        "name": "The Bello Gallico Trail 100mi",
        "country": "Belgium",
        "distance": "100mi",
        "date": "14.12.2024",
        "url": "https://www.bellogallico.be/",
        "city": "Oud-Heverlee",
        "lat": 50.8376275,
        "lng": 4.6629253
    },
    {
        "name": "De Warmste Loop - The Warmest Run",
        "country": "Belgium",
        "distance": "8h",
        "date": "30.11.2024",
        "url": "https://www.dewarmsteloop.be",
        "city": "Wingene",
        "lat": 51.0601502,
        "lng": 3.3070748
    },
    {
        "name": "28\u00e8me Olne-Spa-Olne",
        "country": "Belgium",
        "distance": "71km",
        "date": "24.11.2024",
        "url": "https://www.courirpourleplaisir.be/olne-spa-olne-2/",
        "city": "Olne",
        "lat": 50.5901199,
        "lng": 5.7479948
    },
    {
        "name": "6 hour Winter Challenge of Hamme",
        "country": "Belgium",
        "distance": "6h",
        "date": "23.11.2024",
        "url": "http://www.enduranceday.be",
        "city": "Hamme",
        "lat": 51.0977642,
        "lng": 4.1377229
    },
    {
        "name": "3 De Wase (Halve en Ultra) Marathon",
        "country": "Belgium",
        "distance": "63km",
        "date": "17.11.2024",
        "url": "https://www.dewasemarathon.run",
        "city": "Sinaai",
        "lat": 51.15689,
        "lng": 4.04172
    },
    {
        "name": "Grand Trail des Lacs et Ch\u00e2teaux Winter",
        "country": "Belgium",
        "distance": "66km",
        "date": "09.11.2024",
        "url": "https://grandtrail.be/courses/gt65/",
        "city": "Ovifat",
        "lat": 50.4663622,
        "lng": 6.107063
    },
    {
        "name": "12th Bear Trail 83 Km",
        "country": "Belgium",
        "distance": "83km",
        "date": "26.10.2024",
        "url": "https://www.bearsports.nl/bear-trail/",
        "city": "Voeren",
        "lat": 50.746555,
        "lng": 5.839016
    },
    {
        "name": "12th Bear Trail 58 Km",
        "country": "Belgium",
        "distance": "58km",
        "date": "26.10.2024",
        "url": "http://www.bearsports.nl",
        "city": "Voeren",
        "lat": 50.746555,
        "lng": 5.839016
    },
    {
        "name": "12th Grizzly100",
        "country": "Belgium",
        "distance": "100km",
        "date": "26.10.2024",
        "url": "https://www.bearsports.nl/en/events/bear-trail/",
        "city": "s'Gravenvoeren",
        "lat": 50.7588019,
        "lng": 5.7619737
    },
    {
        "name": "Trail de L'Abbaye",
        "country": "Belgium",
        "distance": "50km",
        "date": "05.10.2024",
        "url": "https://traildelabbaye.be/nl/",
        "city": "Villers-la-Ville",
        "lat": 50.5727285,
        "lng": 4.5342675
    },
    {
        "name": "Clash Der Titanen 110",
        "country": "Belgium",
        "distance": "115km",
        "date": "05.10.2024",
        "url": "https://www.trailrunschool.be/clash-der-titanen",
        "city": "Wezemaal",
        "lat": 50.9482598,
        "lng": 4.7544622
    },
    {
        "name": "Clash Der Titanen 60",
        "country": "Belgium",
        "distance": "61km",
        "date": "05.10.2024",
        "url": "https://www.trailrunschool.be/clash-der-titanen",
        "city": "Wezemaal",
        "lat": 50.9482598,
        "lng": 4.7544622
    },
    {
        "name": "Clash Der Titanen 160",
        "country": "Belgium",
        "distance": "162km",
        "date": "05.10.2024",
        "url": "https://www.trailrunschool.be/clash-der-titanen",
        "city": "Wezemaal",
        "lat": 50.9482598,
        "lng": 4.7544622
    },
    {
        "name": "L'Ultra by HuyForTrail",
        "country": "Belgium",
        "distance": "67km",
        "date": "22.09.2024",
        "url": "https://huyfortrail.org/index.php/lultra/",
        "city": "Bas-Oha",
        "lat": 50.5241866,
        "lng": 5.1767579
    },
    {
        "name": "Trail des F\u00e9es",
        "country": "Belgium",
        "distance": "55km",
        "date": "21.09.2024",
        "url": "http://www.traildesfees.be/",
        "city": "Bertrix",
        "lat": 49.8546564,
        "lng": 5.2529266
    },
    {
        "name": "Kjir ne ki were 12u",
        "country": "Belgium",
        "distance": "12h",
        "date": "07.09.2024",
        "url": "http://ultrarun-kjirnekiwere.jouwweb.nl/",
        "city": "Dentergem",
        "lat": 50.9642783,
        "lng": 3.4191602
    },
    {
        "name": "60 km van Schoten",
        "country": "Belgium",
        "distance": "60km",
        "date": "25.08.2024",
        "url": "http://bloggen.be/50kmvanschoten",
        "city": "Schoten",
        "lat": 51.2516344,
        "lng": 4.4980446
    },
    {
        "name": "13\u00e8me Trail des Fantomes 68km",
        "country": "Belgium",
        "distance": "68km",
        "date": "10.08.2024",
        "url": "https://www.passionforsports.eu/fr-traildesfantomes?count=2",
        "city": "La Roche-en-Ardenne",
        "lat": 50.1602833,
        "lng": 5.5627594
    },
    {
        "name": "13\u00e8me Trail des Fantomes 48km",
        "country": "Belgium",
        "distance": "48km",
        "date": "10.08.2024",
        "url": "https://www.passionforsports.eu/fr-traildesfantomes?count=2",
        "city": "La Roche-en-Ardenne",
        "lat": 50.1602833,
        "lng": 5.5627594
    },
    {
        "name": "13th 6 uur van Aalter",
        "country": "Belgium",
        "distance": "6h",
        "date": "14.07.2024",
        "url": "https://www.marathonandmore.be",
        "city": "Aalter",
        "lat": 51.083894,
        "lng": 3.4485192
    },
    {
        "name": "15\u00e8me Festival Trail Semois",
        "country": "Belgium",
        "distance": "70km",
        "date": "06.07.2024",
        "url": "http://www.festival-trail-semois.be/",
        "city": "Herbeumont",
        "lat": 49.7815364,
        "lng": 5.2377736
    },
    {
        "name": "La Chouffe Trail 51km",
        "country": "Belgium",
        "distance": "51km",
        "date": "06.07.2024",
        "url": "https://www.passionforsports.eu/fr-la-chouffe-trail?count=2",
        "city": "Houffalize",
        "lat": 50.1323761,
        "lng": 5.7886928
    },
    {
        "name": "La Chouffe Trail 70km",
        "country": "Belgium",
        "distance": "70km",
        "date": "06.07.2024",
        "url": "https://www.passionforsports.eu/fr-la-chouffe-trail?count=2",
        "city": "Houffalize",
        "lat": 50.1323761,
        "lng": 5.7886928
    },
    {
        "name": "Mini Medium and MegaTornado",
        "country": "Belgium",
        "distance": "100km",
        "date": "30.06.2024",
        "url": "https://runmymarathon-ultra.jouwweb.nl/kalender",
        "city": "Silly",
        "lat": 50.6428391,
        "lng": 3.9423486
    },
    {
        "name": "Another One Bites the Dust",
        "country": "Belgium",
        "distance": "32h",
        "date": "28.06.2024",
        "url": "http://www.anotheronebitesthedust.be",
        "city": "Bierbeek",
        "lat": 50.8319724,
        "lng": 4.7747499
    },
    {
        "name": "4. Antwerp Backyard Ultra",
        "country": "Belgium",
        "distance": "46h",
        "date": "28.06.2024",
        "url": "http://www.antwerpbackyardultra.be",
        "city": "Schelle",
        "lat": 51.1245635,
        "lng": 4.3361875
    },
    {
        "name": "Haute Ardenne Ultra Trail",
        "country": "Belgium",
        "distance": "50km",
        "date": "22.06.2024",
        "url": "https://www.mudsweattrails.nl/haute-ardenne-ultra-trail-festival/",
        "city": "Trois-Ponts",
        "lat": 50.3726812,
        "lng": 5.8702957
    },
    {
        "name": "Trail Godefroy Bouillon",
        "country": "Belgium",
        "distance": "104km",
        "date": "15.06.2024",
        "url": "https://www.passionforsports.eu/nl-trailgodefroy?count=1",
        "city": "Bouillon",
        "lat": 49.7949836,
        "lng": 5.0672528
    },
    {
        "name": "Trail Godefroy Bouillon",
        "country": "Belgium",
        "distance": "80km",
        "date": "15.06.2024",
        "url": "https://www.passionforsports.eu/nl-trailgodefroy?count=1",
        "city": "Bouillon",
        "lat": 49.7949836,
        "lng": 5.0672528
    },
    {
        "name": "Trail Godefroy Bouillon",
        "country": "Belgium",
        "distance": "50km",
        "date": "15.06.2024",
        "url": "https://www.passionforsports.eu/nl-trailgodefroy?count=1",
        "city": "Bouillon",
        "lat": 49.7949836,
        "lng": 5.0672528
    },
    {
        "name": "1st The Longest Day 50km",
        "country": "Belgium",
        "distance": "50km",
        "date": "08.06.2024",
        "url": "https://passionforsports.eu/en-thelongestdaytrail?count=1",
        "city": "Spa",
        "lat": 50.4920654,
        "lng": 5.8627569
    },
    {
        "name": "17e Ohm Trail - XL",
        "country": "Belgium",
        "distance": "55km",
        "date": "02.06.2024",
        "url": "https://www.eventstrail.be/ohmtrail/",
        "city": "Aywaille",
        "lat": 50.4758998,
        "lng": 5.6763249
    },
    {
        "name": "17e Ohm Trail - Ultra",
        "country": "Belgium",
        "distance": "80km",
        "date": "02.06.2024",
        "url": "https://www.eventstrail.be/ohmtrail/",
        "city": "Aywaille",
        "lat": 50.4758998,
        "lng": 5.6763249
    },
    {
        "name": "La Balade du Gendarme",
        "country": "Belgium",
        "distance": "102km",
        "date": "19.05.2024",
        "url": "https://www.lescoureurscelestes.be/",
        "city": "Landenne",
        "lat": 50.5142495,
        "lng": 5.0646275
    },
    {
        "name": "Grand Trail des Lacs et Ch\u00e2teaux 85km",
        "country": "Belgium",
        "distance": "85km",
        "date": "19.05.2024",
        "url": "https://grandtrail.be/",
        "city": "Ovifat",
        "lat": 50.4663622,
        "lng": 6.107063
    },
    {
        "name": "6 uur Challenge van Hamme",
        "country": "Belgium",
        "distance": "6h",
        "date": "11.05.2024",
        "url": "https://www.enduranceday.be",
        "city": "Hamme",
        "lat": 51.0977642,
        "lng": 4.1377229
    },
    {
        "name": "Trail de Chimay",
        "country": "Belgium",
        "distance": "50km",
        "date": "11.05.2024",
        "url": "https://passionforsports.eu/en-traildechimay?count=1",
        "city": "Bourlers",
        "lat": 50.027359,
        "lng": 4.341293
    },
    {
        "name": "Until the End - Backyard Ultra",
        "country": "Belgium",
        "distance": "32h",
        "date": "04.05.2024",
        "url": "https://www.until-the-end.com/",
        "city": "Spa",
        "lat": 50.4920654,
        "lng": 5.8627569
    },
    {
        "name": "L.A.T Legends Ardennes Trail 100km",
        "country": "Belgium",
        "distance": "107km",
        "date": "27.04.2024",
        "url": "https://legendsardennestrail.be",
        "city": "Nisramont",
        "lat": 50.1353549,
        "lng": 5.6471185
    },
    {
        "name": "L.A.T Legends Ardennes Trail 60km",
        "country": "Belgium",
        "distance": "62km",
        "date": "27.04.2024",
        "url": "https://legendsardennestrail.be",
        "city": "Lamormenil",
        "lat": 50.2542118,
        "lng": 5.6378252
    },
    {
        "name": "Legends Backyard Ultra",
        "country": "Belgium",
        "distance": "53h",
        "date": "20.04.2024",
        "url": "https://www.backyardbelgium.com/",
        "city": "Kasterlee",
        "lat": 51.2407915,
        "lng": 4.967812
    },
    {
        "name": "TDI (Trail des Idylles)",
        "country": "Belgium",
        "distance": "52.4km",
        "date": "13.04.2024",
        "url": "http://www.traildesidylles.be/",
        "city": "Malmedy / Chodes"
    },
    {
        "name": "Trail des Cisterciens",
        "country": "Belgium",
        "distance": "67km",
        "date": "07.04.2024",
        "url": "http://www.traildescisterciens.be",
        "city": "Court-St-Etienne",
        "lat": 50.6443208,
        "lng": 4.5685766
    },
    {
        "name": "Endurance Day Hamme 50 km",
        "country": "Belgium",
        "distance": "50km",
        "date": "17.03.2024",
        "url": "https://www.enduranceday.be",
        "city": "Hamme",
        "lat": 51.0977642,
        "lng": 4.1377229
    },
    {
        "name": "Endurance Day Hamme 100 km",
        "country": "Belgium",
        "distance": "100km",
        "date": "17.03.2024",
        "url": "https://www.enduranceday.be",
        "city": "Hamme",
        "lat": 51.0977642,
        "lng": 4.1377229
    },
    {
        "name": "Endurance Day Hamme 50 mi",
        "country": "Belgium",
        "distance": "50mi",
        "date": "17.03.2024",
        "url": "https://www.enduranceday.be",
        "city": "Hamme",
        "lat": 51.0977642,
        "lng": 4.1377229
    },
    {
        "name": "LaThare\u00e9 Trail  48 km",
        "country": "Belgium",
        "distance": "48km",
        "date": "16.03.2024",
        "url": "https://www.latharee-trail.be/",
        "city": "Rettigny",
        "lat": 50.1678509,
        "lng": 5.8801729
    },
    {
        "name": "LaThare\u00e9 Trail  55 km",
        "country": "Belgium",
        "distance": "55km",
        "date": "16.03.2024",
        "url": "https://www.latharee-trail.be/",
        "city": "Rettigny",
        "lat": 50.1678509,
        "lng": 5.8801729
    },
    {
        "name": "3\u00e8me Trail de la Siberie - 50km",
        "country": "Belgium",
        "distance": "52km",
        "date": "24.02.2024",
        "url": "https://www.trail-de-la-siberie.com/",
        "city": "Profondeville",
        "lat": 50.3762043,
        "lng": 4.8675024
    },
    {
        "name": "3\u00e8me Trail de la Siberie - 75km",
        "country": "Belgium",
        "distance": "76km",
        "date": "24.02.2024",
        "url": "https://www.trail-de-la-siberie.com/",
        "city": "Profondeville",
        "lat": 50.3762043,
        "lng": 4.8675024
    },
    {
        "name": "3\u00e8me Trail de la Siberie - 100km",
        "country": "Belgium",
        "distance": "101km",
        "date": "24.02.2024",
        "url": "https://www.trail-de-la-siberie.com/",
        "city": "Profondeville",
        "lat": 50.3762043,
        "lng": 4.8675024
    },
    {
        "name": "2. Mad Elf Run",
        "country": "Belgium",
        "distance": "49km",
        "date": "17.02.2024",
        "url": "https://m.facebook.com/events/3148237908819490/",
        "city": "Aywaille",
        "lat": 50.4758998,
        "lng": 5.6763249
    },
    {
        "name": "Muziekbos Trail - 64 km",
        "country": "Belgium",
        "distance": "64km",
        "date": "11.02.2024",
        "url": "https://hermes-running-events.odoo.com/muziekbos-trail",
        "city": "Ronse",
        "lat": 50.7526199,
        "lng": 3.6014477
    },
    {
        "name": "Muziekbos Trail - 45 km",
        "country": "Belgium",
        "distance": "45km",
        "date": "11.02.2024",
        "url": "https://hermes-running-events.odoo.com/muziekbos-trail",
        "city": "Ronse",
        "lat": 50.7526199,
        "lng": 3.6014477
    },
    {
        "name": "Trailmarathon Het Leen",
        "country": "Belgium",
        "distance": "45km",
        "date": "10.02.2024",
        "url": "http://www.cavalopers.be",
        "city": "Eeklo",
        "lat": 51.1844827,
        "lng": 3.5665965
    },
    {
        "name": "Houffatrail 50km",
        "country": "Belgium",
        "distance": "50km",
        "date": "21.01.2024",
        "url": "https://passionforsports.eu/en-houffatrail?count=1",
        "city": "Houffalize",
        "lat": 50.1323761,
        "lng": 5.7886928
    },
    {
        "name": "Houffatrail 65km",
        "country": "Belgium",
        "distance": "65km",
        "date": "21.01.2024",
        "url": "https://passionforsports.eu/en-houffatrail?count=1",
        "city": "Houffalize",
        "lat": 50.1323761,
        "lng": 5.7886928
    },
    {
        "name": "9. Bostrails Aalter",
        "country": "Belgium",
        "distance": "47km",
        "date": "20.01.2024",
        "url": "https://www.marathonandmore.be/",
        "city": "Aalter",
        "lat": 51.083894,
        "lng": 3.4485192
    },
    {
        "name": "Bastogne - Wiltz - Bastogne 70km",
        "country": "Belgium",
        "distance": "70km",
        "date": "28.12.2025",
        "url": "https://www.trailrun.be/bastogne-wiltz-bastogne/",
        "city": "Bastogne",
        "lat": 50.0023102,
        "lng": 5.7173386
    },
    {
        "name": "Bastogne - Wiltz - Bastogne 50km",
        "country": "Belgium",
        "distance": "50km",
        "date": "28.12.2025",
        "url": "https://www.trailrun.be/bastogne-wiltz-bastogne/",
        "city": "Bastogne",
        "lat": 50.0023102,
        "lng": 5.7173386
    },
    {
        "name": "Meerdaalwoud Trail",
        "country": "Belgium",
        "distance": "50km",
        "date": "20.12.2025",
        "url": "https://www.trailrun.be/meerdaalwoud-trail/",
        "city": "Bierbeek",
        "lat": 50.8319724,
        "lng": 4.7747499
    },
    {
        "name": "7. Trail du BW - 62km",
        "country": "Belgium",
        "distance": "62km",
        "date": "07.12.2025",
        "url": "https://www.traildubw.be/",
        "city": "Grez-Doiceau",
        "lat": 50.7386182,
        "lng": 4.6962324
    },
    {
        "name": "7. Trail du BW - 84km",
        "country": "Belgium",
        "distance": "84km",
        "date": "07.12.2025",
        "url": "https://www.traildubw.be/",
        "city": "Grez-Doiceau",
        "lat": 50.7386182,
        "lng": 4.6962324
    },
    {
        "name": "Trail de la Soupe",
        "country": "Belgium",
        "distance": "45km",
        "date": "30.11.2025",
        "url": "https://www.trailrun.be/fr/trail-de-la-soupe/#efaq-45km-dimanche-1730m-d",
        "city": "La-Roche-en-Ardenne",
        "lat": 50.1602833,
        "lng": 5.5627594
    },
    {
        "name": "De Warmste Loop - The Warmest Run",
        "country": "Belgium",
        "distance": "8h",
        "date": "30.11.2025",
        "url": "https://www.dewarmsteloop.be",
        "city": "Wingene",
        "lat": 51.0601502,
        "lng": 3.3070748
    },
    {
        "name": "29\u00e8me Olne-Spa-Olne",
        "country": "Belgium",
        "distance": "71km",
        "date": "23.11.2025",
        "url": "https://www.courirpourleplaisir.be/olne-spa-olne-2/",
        "city": "Olne",
        "lat": 50.5901199,
        "lng": 5.7479948
    },
    {
        "name": "5\u00b0 Grand Trail des Lacs et Ch\u00e2teaux Winter",
        "country": "Belgium",
        "distance": "66km",
        "date": "08.11.2025",
        "url": "https://grandtrail.be/courses/gt65/",
        "city": "Ovifat",
        "lat": 50.4663622,
        "lng": 6.107063
    },
    {
        "name": "4 De Wase (Ultra) Marathon",
        "country": "Belgium",
        "distance": "58km",
        "date": "26.10.2025",
        "url": "https://www.dewasemarathon.run",
        "city": "Sinaai",
        "lat": 51.15689,
        "lng": 4.04172
    },
    {
        "name": "8. Grizzly100",
        "country": "Belgium",
        "distance": "100km",
        "date": "25.10.2025",
        "url": "https://www.bearsports.nl/bear-trail/",
        "city": "s'Gravenvoeren",
        "lat": 50.7588019,
        "lng": 5.7619737
    },
    {
        "name": "13th Bear Trail 58 Km",
        "country": "Belgium",
        "distance": "58km",
        "date": "25.10.2025",
        "url": "https://www.bearsports.nl/bear-trail/",
        "city": "Voeren",
        "lat": 50.746555,
        "lng": 5.839016
    },
    {
        "name": "8. Bear Trail 83 Km",
        "country": "Belgium",
        "distance": "83km",
        "date": "25.10.2025",
        "url": "https://www.bearsports.nl/bear-trail/",
        "city": "Voeren",
        "lat": 50.746555,
        "lng": 5.839016
    },
    {
        "name": "Clash Der Titanen 60",
        "country": "Belgium",
        "distance": "64km",
        "date": "11.10.2025",
        "url": "https://www.waco-sports.be/clash-der-titanen",
        "city": "Wezemaal",
        "lat": 50.9482598,
        "lng": 4.7544622
    },
    {
        "name": "Clash Der Titanen 120",
        "country": "Belgium",
        "distance": "123km",
        "date": "11.10.2025",
        "url": "https://www.waco-sports.be/clash-der-titanen",
        "city": "Wezemaal",
        "lat": 50.9482598,
        "lng": 4.7544622
    },
    {
        "name": "Clash Der Titanen 160",
        "country": "Belgium",
        "distance": "165km",
        "date": "11.10.2025",
        "url": "https://www.waco-sports.be/clash-der-titanen",
        "city": "Wezemaal",
        "lat": 50.9482598,
        "lng": 4.7544622
    },
    {
        "name": "Clash Der Titanen 90",
        "country": "Belgium",
        "distance": "93km",
        "date": "11.10.2025",
        "url": "https://www.waco-sports.be/clash-der-titanen",
        "city": "Wezemaal",
        "lat": 50.9482598,
        "lng": 4.7544622
    },
    {
        "name": "Clash Der Titanen 200",
        "country": "Belgium",
        "distance": "203km",
        "date": "10.10.2025",
        "url": "https://www.waco-sports.be/clash-der-titanen",
        "city": "Wezemaal",
        "lat": 50.9482598,
        "lng": 4.7544622
    },
    {
        "name": "GR Provincie Trail Henegouwen",
        "country": "Belgium",
        "distance": "45km",
        "date": "05.10.2025",
        "url": "marathonandmore.be",
        "city": "Erbisoeul",
        "lat": 50.5155495,
        "lng": 3.8961158
    },
    {
        "name": "Infinity Trail - Ultra Trail",
        "country": "Belgium",
        "distance": "70km",
        "date": "04.10.2025",
        "url": "https://www.facebook.com/profile.php?id=100063772611356",
        "city": "Vielsalm",
        "lat": 50.2842154,
        "lng": 5.9162783
    },
    {
        "name": "Trail de L'Abbaye",
        "country": "Belgium",
        "distance": "50km",
        "date": "04.10.2025",
        "url": "https://traildelabbaye.be/fr",
        "city": "Villers-la-Ville",
        "lat": 50.5727285,
        "lng": 4.5342675
    },
    {
        "name": "4. L'Ultratrail by HuyForTrail",
        "country": "Belgium",
        "distance": "50km",
        "date": "21.09.2025",
        "url": "https://huyfortrail.com/lultra-trail/",
        "city": "Andenne",
        "lat": 50.4896303,
        "lng": 5.0587475
    },
    {
        "name": "11. Trail des F\u00e9es",
        "country": "Belgium",
        "distance": "55km",
        "date": "20.09.2025",
        "url": "http://www.traildesfees.be/",
        "city": "Bertrix",
        "lat": 49.8546564,
        "lng": 5.2529266
    },
    {
        "name": "Canceled: 6 uur Challenge van Hamme (BEL)",
        "country": "Belgium",
        "distance": "6h",
        "date": "07.09.2025",
        "url": "https://www.enduranceday.be",
        "city": "Hamme",
        "lat": 51.0977642,
        "lng": 4.1377229
    },
    {
        "name": "Europa Trail Brussels 80km",
        "country": "Belgium",
        "distance": "80km",
        "date": "06.09.2025",
        "url": "https://www.zatopekmagazine.com/en/europatrail/distances/#80km",
        "city": "Uccle",
        "lat": 50.8035441,
        "lng": 4.3338445
    },
    {
        "name": "3. Europa Trail Brussels 52km",
        "country": "Belgium",
        "distance": "52km",
        "date": "06.09.2025",
        "url": "https://www.zatopekmagazine.com/en/europatrail/distances/#52km",
        "city": "Uccle",
        "lat": 50.8035441,
        "lng": 4.3338445
    },
    {
        "name": "7. One More Loop",
        "country": "Belgium",
        "distance": "34h",
        "date": "05.09.2025",
        "url": "https://www.bvrc.be/index.php?page=challenge&id=110",
        "city": "Geraardsbergen",
        "lat": 50.7715779,
        "lng": 3.8827287
    },
    {
        "name": "Transeuropalauf 2025 19. Etappe Libramont-Chevigny - Simmern",
        "country": "Belgium",
        "distance": "66km",
        "date": "21.08.2025",
        "url": "https://www.neckarlauf.com",
        "city": "Libramont-Chevigny",
        "lat": 49.94991,
        "lng": 5.4370892
    },
    {
        "name": "Transeuropalauf 2025 17. Etappe Eghezee - Givet",
        "country": "Belgium",
        "distance": "72km",
        "date": "19.08.2025",
        "url": "https://www.neckarlauf.com",
        "city": "Eghezee",
        "lat": 50.591679,
        "lng": 4.9065999
    },
    {
        "name": "Transeuropalauf 2025 16. Etappe Bekkevoort - Eghezee",
        "country": "Belgium",
        "distance": "50km",
        "date": "18.08.2025",
        "url": "https://www.neckarlauf.com",
        "city": "Bekkevoort",
        "lat": 50.9312464,
        "lng": 4.9954667
    },
    {
        "name": "Transeuropalauf 2025 15. Etappe Zutendaal - Bekkevoort",
        "country": "Belgium",
        "distance": "km58",
        "date": "17.08.2025",
        "url": "https://www.neckarlauf.com",
        "city": "Zutendaal",
        "lat": 50.9318992,
        "lng": 5.5725548
    },
    {
        "name": "14\u00e8me Trail des Fantomes 55km",
        "country": "Belgium",
        "distance": "55km",
        "date": "09.08.2025",
        "url": "https://www.passionforsports.eu/fr-traildesfantomes?count=2",
        "city": "Nisramont",
        "lat": 50.1353549,
        "lng": 5.6471185
    },
    {
        "name": "14\u00e8me Trail des Fantomes 73km",
        "country": "Belgium",
        "distance": "73km",
        "date": "09.08.2025",
        "url": "https://www.passionforsports.eu/fr-traildesfantomes?count=2",
        "city": "Nisramont",
        "lat": 50.1353549,
        "lng": 5.6471185
    },
    {
        "name": "Ultra Trail Haute Ardenne - Jour 2 - 60 km",
        "country": "Belgium",
        "distance": "60km",
        "date": "03.08.2025",
        "url": "https://www.utha.be/57km",
        "city": "Station de la Baraque de Fraiture"
    },
    {
        "name": "Ultra Trail Haute Ardenne - Jour 1 50 km",
        "country": "Belgium",
        "distance": "50km",
        "date": "02.08.2025",
        "url": "https://www.utha.be/50km-d1",
        "city": "Malmedy",
        "lat": 50.4265348,
        "lng": 6.0276059
    },
    {
        "name": "Ultra Trail Haute Ardenne - Jour 1 70 km",
        "country": "Belgium",
        "distance": "70km",
        "date": "02.08.2025",
        "url": "https://www.utha.be/70km-d1",
        "city": "Signal de Botrange"
    },
    {
        "name": "Ultra Trail Haute Ardenne - Jour 1 100 km",
        "country": "Belgium",
        "distance": "100km",
        "date": "02.08.2025",
        "url": "https://www.utha.be/100km-d1",
        "city": "Waimes (Signal de Botrange)"
    },
    {
        "name": "14\u00b0 6 uur van Aalter",
        "country": "Belgium",
        "distance": "6h",
        "date": "20.07.2025",
        "url": "https://www.marathonandmore.be",
        "city": "Aalter",
        "lat": 51.083894,
        "lng": 3.4485192
    },
    {
        "name": "GR Provincie Trail Limburg",
        "country": "Belgium",
        "distance": "46.3km",
        "date": "06.07.2025",
        "url": "https://my.raceresult.com/317068/info",
        "city": "Teuven",
        "lat": 50.7514715,
        "lng": 5.8743087
    },
    {
        "name": "8\u00e8me La Chouffe Trail 56km",
        "country": "Belgium",
        "distance": "56km",
        "date": "05.07.2025",
        "url": "https://www.passionforsports.eu/fr-la-chouffe-trail?count=2",
        "city": "Houffalize",
        "lat": 50.1323761,
        "lng": 5.7886928
    },
    {
        "name": "8\u00e8me La Chouffe Trail 80km",
        "country": "Belgium",
        "distance": "80km",
        "date": "05.07.2025",
        "url": "https://www.passionforsports.eu/fr-la-chouffe-trail?count=2",
        "city": "Houffalize",
        "lat": 50.1323761,
        "lng": 5.7886928
    },
    {
        "name": "17\u00e8me Festival Trail Semois",
        "country": "Belgium",
        "distance": "70km",
        "date": "05.07.2025",
        "url": "http://www.festival-trail-semois.be/",
        "city": "Herbeumont",
        "lat": 49.7815364,
        "lng": 5.2377736
    },
    {
        "name": "Ultra Tour de Li\u00e8ge",
        "country": "Belgium",
        "distance": "67km",
        "date": "05.07.2025",
        "url": "http://ultratourdeliege.wikeo.net/",
        "city": "L\u00fcttich",
        "lat": 50.6450944,
        "lng": 5.5736112
    },
    {
        "name": "17\u00e8me Festival Trail Semois",
        "country": "Belgium",
        "distance": "49km",
        "date": "05.07.2025",
        "url": "http://www.festival-trail-semois.be/",
        "city": "Herbeumont",
        "lat": 49.7815364,
        "lng": 5.2377736
    },
    {
        "name": "Another One Bites the Dust",
        "country": "Belgium",
        "distance": "32h",
        "date": "04.07.2025",
        "url": "http://www.anotheronebitesthedust.be",
        "city": "Bierbeek",
        "lat": 50.8319724,
        "lng": 4.7747499
    },
    {
        "name": "Canceled: Mini and MegaTornado (BEL)",
        "country": "Belgium",
        "distance": "100km",
        "date": "29.06.2025",
        "url": "https://runmymarathon-ultra.jouwweb.nl/kalender",
        "city": "Silly",
        "lat": 50.6428391,
        "lng": 3.9423486
    },
    {
        "name": "L'assaut du Maquisard",
        "country": "Belgium",
        "distance": "45km",
        "date": "28.06.2025",
        "url": "https://www.zatopekmagazine.com/lassaut-du-maquisard/les-epreuves-de-lassaut-du-maquisard/#45km",
        "city": "Thieux"
    },
    {
        "name": "5. Antwerp Backyard Ultra",
        "country": "Belgium",
        "distance": "32h",
        "date": "27.06.2025",
        "url": "http://www.antwerpbackyardultra.be",
        "city": "Schelle",
        "lat": 51.1245635,
        "lng": 4.3361875
    },
    {
        "name": "25. Trail Godefroy Bouillon",
        "country": "Belgium",
        "distance": "75km",
        "date": "14.06.2025",
        "url": "https://www.trailrun.be/trail-godefroy-bouillon/",
        "city": "Bouillon",
        "lat": 49.7949836,
        "lng": 5.0672528
    },
    {
        "name": "25. Trail Godefroy Bouillon",
        "country": "Belgium",
        "distance": "100km",
        "date": "14.06.2025",
        "url": "https://www.trailrun.be/trail-godefroy-bouillon/",
        "city": "Bouillon",
        "lat": 49.7949836,
        "lng": 5.0672528
    },
    {
        "name": "25. Trail Godefroy Bouillon",
        "country": "Belgium",
        "distance": "53km",
        "date": "14.06.2025",
        "url": "https://www.trailrun.be/trail-godefroy-bouillon/",
        "city": "Bouillon",
        "lat": 49.7949836,
        "lng": 5.0672528
    },
    {
        "name": "25. Les Clochards C\u00e9lestes",
        "country": "Belgium",
        "distance": "101km",
        "date": "08.06.2025",
        "url": "https://www.lescoureurscelestes.be/",
        "city": "Pepinster",
        "lat": 50.5710312,
        "lng": 5.7978592
    },
    {
        "name": "7th The Longest Day 50km",
        "country": "Belgium",
        "distance": "52km",
        "date": "07.06.2025",
        "url": "https://www.trailrun.be/fr/the-longest-day-trail/",
        "city": "Spa",
        "lat": 50.4920654,
        "lng": 5.8627569
    },
    {
        "name": "18e Ohm Trail - XL",
        "country": "Belgium",
        "distance": "55km",
        "date": "01.06.2025",
        "url": "https://www.eventstrail.be/ohmtrail/",
        "city": "Aywaille",
        "lat": 50.4758998,
        "lng": 5.6763249
    },
    {
        "name": "18e Ohm Trail - Ultra",
        "country": "Belgium",
        "distance": "80km",
        "date": "01.06.2025",
        "url": "https://www.eventstrail.be/ohmtrail/",
        "city": "Aywaille",
        "lat": 50.4758998,
        "lng": 5.6763249
    },
    {
        "name": "Canceled: Endurance Day Hamme 50 km (BEL)",
        "country": "Belgium",
        "distance": "50km",
        "date": "01.06.2025",
        "url": "https://www.enduranceday.be",
        "city": "Hamme",
        "lat": 51.0977642,
        "lng": 4.1377229
    },
    {
        "name": "Canceled: Endurance Day Hamme 100 km (BEL)",
        "country": "Belgium",
        "distance": "100km",
        "date": "01.06.2025",
        "url": "https://www.enduranceday.be",
        "city": "Hamme",
        "lat": 51.0977642,
        "lng": 4.1377229
    },
    {
        "name": "R24u Ultraloop - 3h",
        "country": "Belgium",
        "distance": "3h",
        "date": "25.05.2025",
        "url": "https://r24mechelen.be/",
        "city": "Mechelen",
        "lat": 51.0281381,
        "lng": 4.4803453
    },
    {
        "name": "R24u Ultraloop - 6h",
        "country": "Belgium",
        "distance": "6h",
        "date": "24.05.2025",
        "url": "https://r24mechelen.be/",
        "city": "Mechelen",
        "lat": 51.0281381,
        "lng": 4.4803453
    },
    {
        "name": "15\u00b0 Grand Trail des Lacs et Ch\u00e2teaux 85km",
        "country": "Belgium",
        "distance": "85km",
        "date": "17.05.2025",
        "url": "https://grandtrail.be/",
        "city": "Ovifat",
        "lat": 50.4663622,
        "lng": 6.107063
    },
    {
        "name": "Trail de Chimay",
        "country": "Belgium",
        "distance": "50km",
        "date": "10.05.2025",
        "url": "https://passionforsports.eu/en-traildechimay?count=1",
        "city": "Bourlers",
        "lat": 50.027359,
        "lng": 4.341293
    },
    {
        "name": "Until the End - Backyard Ultra",
        "country": "Belgium",
        "distance": "29h",
        "date": "03.05.2025",
        "url": "https://www.until-the-end.com/",
        "city": "Spa",
        "lat": 50.4920654,
        "lng": 5.8627569
    },
    {
        "name": "Belgian Front Memorial Trail",
        "country": "Belgium",
        "distance": "103km",
        "date": "03.05.2025",
        "url": "http://belgianfrontmemorialtrail.be",
        "city": "Messines",
        "lat": 50.759827,
        "lng": 2.8998324
    },
    {
        "name": "5 Legends Backyard Ultra",
        "country": "Belgium",
        "distance": "116h",
        "date": "26.04.2025",
        "url": "https://www.backyardbelgium.com/",
        "city": "Retie",
        "lat": 51.2675862,
        "lng": 5.0843883
    },
    {
        "name": "L.A.T Legends Ardennes Trail 100km",
        "country": "Belgium",
        "distance": "107km",
        "date": "26.04.2025",
        "url": "https://www.ledossard.com/inscription/index.php?id=2508",
        "city": "Nisramont",
        "lat": 50.1353549,
        "lng": 5.6471185
    },
    {
        "name": "L.A.T Legends Ardennes Trail 60km",
        "country": "Belgium",
        "distance": "62km",
        "date": "26.04.2025",
        "url": "https://www.ledossard.com/inscription/index.php?id=2508",
        "city": "Lamormenil",
        "lat": 50.2542118,
        "lng": 5.6378252
    },
    {
        "name": "Trail des Cisterciens - 65km",
        "country": "Belgium",
        "distance": "65km",
        "date": "20.04.2025",
        "url": "http://www.traildescisterciens.be",
        "city": "Court-St-Etienne",
        "lat": 50.6443208,
        "lng": 4.5685766
    },
    {
        "name": "Trail des Cisterciens - 100km",
        "country": "Belgium",
        "distance": "100km",
        "date": "20.04.2025",
        "url": "http://www.traildescisterciens.be",
        "city": "Court-St-Etienne",
        "lat": 50.6443208,
        "lng": 4.5685766
    },
    {
        "name": "GR Provincie Trail West-Vlaanderen",
        "country": "Belgium",
        "distance": "50.1km",
        "date": "19.04.2025",
        "url": "https://my.raceresult.com/315003/info",
        "city": "Blankenberge",
        "lat": 51.3112589,
        "lng": 3.1323429
    },
    {
        "name": "TDI (Trail des Idylles)",
        "country": "Belgium",
        "distance": "57km",
        "date": "12.04.2025",
        "url": "http://www.traildesidylles.be/",
        "city": "Malmedy / Chodes"
    },
    {
        "name": "GR Provincie Trail Luxemburg",
        "country": "Belgium",
        "distance": "46.3km",
        "date": "23.03.2025",
        "url": "https://my.raceresult.com/314361/info",
        "city": "Messancy",
        "lat": 49.5949862,
        "lng": 5.8145736
    },
    {
        "name": "Trail des Sangliers",
        "country": "Belgium",
        "distance": "75km",
        "date": "22.03.2025",
        "url": "https://www.trailrun.be/fr/trail-des-sangliers/",
        "city": "La Roche-En-Ardenne",
        "lat": 50.1602833,
        "lng": 5.5627594
    },
    {
        "name": "Dplus draait door - 6h",
        "country": "Belgium",
        "distance": "6h",
        "date": "16.03.2025",
        "url": "https://dplusdinsdag.be/dplusdraaitdoor",
        "city": "Kortenberg",
        "lat": 50.8952922,
        "lng": 4.5656007
    },
    {
        "name": "LaThare\u00e9 Trail  49 km",
        "country": "Belgium",
        "distance": "49km",
        "date": "15.03.2025",
        "url": "https://www.latharee-trail.be/",
        "city": "Rettigny",
        "lat": 50.1678509,
        "lng": 5.8801729
    },
    {
        "name": "LaThare\u00e9 Trail  56 km",
        "country": "Belgium",
        "distance": "56km",
        "date": "15.03.2025",
        "url": "https://www.latharee-trail.be/",
        "city": "Rettigny",
        "lat": 50.1678509,
        "lng": 5.8801729
    },
    {
        "name": "4\u00e8me Trail de la Siberie - 50km",
        "country": "Belgium",
        "distance": "52km",
        "date": "22.02.2025",
        "url": "https://www.trail-de-la-siberie.com/",
        "city": "Profondeville",
        "lat": 50.3762043,
        "lng": 4.8675024
    },
    {
        "name": "4\u00e8me Trail de la Siberie - 75km",
        "country": "Belgium",
        "distance": "76km",
        "date": "22.02.2025",
        "url": "https://www.trail-de-la-siberie.com/",
        "city": "Profondeville",
        "lat": 50.3762043,
        "lng": 4.8675024
    },
    {
        "name": "4\u00e8me Trail de la Siberie - 100km",
        "country": "Belgium",
        "distance": "101km",
        "date": "22.02.2025",
        "url": "https://www.trail-de-la-siberie.com/",
        "city": "Profondeville",
        "lat": 50.3762043,
        "lng": 4.8675024
    },
    {
        "name": "4\u00e8me Trail de la Siberie - 125km",
        "country": "Belgium",
        "distance": "125km",
        "date": "22.02.2025",
        "url": "https://www.trail-de-la-siberie.com/",
        "city": "Profondeville",
        "lat": 50.3762043,
        "lng": 4.8675024
    },
    {
        "name": "La Magnetoise",
        "country": "Belgium",
        "distance": "59km",
        "date": "16.02.2025",
        "url": "http://lamagnetoise.be/",
        "city": "Magnee",
        "lat": 50.6028765,
        "lng": 5.6811009
    },
    {
        "name": "Muziekbos Trail - 64 km",
        "country": "Belgium",
        "distance": "64km",
        "date": "09.02.2025",
        "url": "https://hermes-running-events.odoo.com/muziekbos-trail",
        "city": "Ronse",
        "lat": 50.7526199,
        "lng": 3.6014477
    },
    {
        "name": "Muziekbos Trail - 45 km",
        "country": "Belgium",
        "distance": "45km",
        "date": "09.02.2025",
        "url": "https://hermes-running-events.odoo.com/muziekbos-trail",
        "city": "Ronse",
        "lat": 50.7526199,
        "lng": 3.6014477
    },
    {
        "name": "Trailmarathon Het Leen",
        "country": "Belgium",
        "distance": "45km",
        "date": "02.02.2025",
        "url": "http://www.cavalopers.be",
        "city": "Eeklo",
        "lat": 51.1844827,
        "lng": 3.5665965
    },
    {
        "name": "Houffatrail 50km",
        "country": "Belgium",
        "distance": "50km",
        "date": "25.01.2025",
        "url": "https://passionforsports.eu/en-houffatrail?count=1",
        "city": "Houffalize",
        "lat": 50.1323761,
        "lng": 5.7886928
    },
    {
        "name": "Houffatrail 63km",
        "country": "Belgium",
        "distance": "63km",
        "date": "25.01.2025",
        "url": "https://passionforsports.eu/en-houffatrail?count=1",
        "city": "Houffalize",
        "lat": 50.1323761,
        "lng": 5.7886928
    },
    {
        "name": "Meerdaalwoud Trail",
        "country": "Belgium",
        "distance": "50km",
        "date": "19.12.2026",
        "url": "https://www.trailrun.be/meerdaalwoud-trail/",
        "city": "Bierbeek",
        "lat": 50.8319724,
        "lng": 4.7747499
    },
    {
        "name": "De Warmste Loop - The Warmest Run",
        "country": "Belgium",
        "distance": "8h",
        "date": "29.11.2026",
        "url": "https://www.dewarmsteloop.be",
        "city": "Wingene",
        "lat": 51.0601502,
        "lng": 3.3070748
    },
    {
        "name": "Trail de la Soupe",
        "country": "Belgium",
        "distance": "45km",
        "date": "29.11.2026",
        "url": "https://www.trailrun.be/fr/trail-de-la-soupe/#efaq-45km-dimanche-1730m-d",
        "city": "La-Roche-en-Ardenne",
        "lat": 50.1602833,
        "lng": 5.5627594
    },
    {
        "name": "Ultra Trail Haute Ardenne - Jour 2 - 57 km",
        "country": "Belgium",
        "distance": "57km",
        "date": "02.08.2026",
        "url": "https://www.utha.be/57km",
        "city": "Station de la Baraque de Fraiture"
    },
    {
        "name": "Ultra Trail Haute Ardenne - Jour 1 50 km",
        "country": "Belgium",
        "distance": "50km",
        "date": "01.08.2026",
        "url": "https://www.utha.be/50km-d1",
        "city": "Malmedy",
        "lat": 50.4265348,
        "lng": 6.0276059
    },
    {
        "name": "Ultra Trail Haute Ardenne - Jour 1 70 km",
        "country": "Belgium",
        "distance": "70km",
        "date": "01.08.2026",
        "url": "https://www.utha.be/70km-d1",
        "city": "Signal de Botrange"
    },
    {
        "name": "Ultra Trail Haute Ardenne - Jour 1 100 km",
        "country": "Belgium",
        "distance": "100km",
        "date": "01.08.2026",
        "url": "https://www.utha.be/100km-d1",
        "city": "Signal de Botrange"
    },
    {
        "name": "Another One Bites the Dust",
        "country": "Belgium",
        "distance": "34h",
        "date": "03.07.2026",
        "url": "http://www.anotheronebitesthedust.be",
        "city": "Bierbeek",
        "lat": 50.8319724,
        "lng": 4.7747499
    },
    {
        "name": "6. Antwerp Backyard Ultra",
        "country": "Belgium",
        "distance": "32h",
        "date": "19.06.2026",
        "url": "http://www.antwerpbackyardultra.be",
        "city": "Schelle",
        "lat": 51.1245635,
        "lng": 4.3361875
    },
    {
        "name": "8th The Longest Day 50km",
        "country": "Belgium",
        "distance": "50km",
        "date": "06.06.2026",
        "url": "https://www.passionforsports.eu/nl-longestday",
        "city": "Spa",
        "lat": 50.4920654,
        "lng": 5.8627569
    },
    {
        "name": "26. Trail Godefroy Bouillon TGB 50",
        "country": "Belgium",
        "distance": "53km",
        "date": "06.06.2026",
        "url": "https://www.trailrun.be/trail-godefroy-bouillon/",
        "city": "Bouillon",
        "lat": 49.7949836,
        "lng": 5.0672528
    },
    {
        "name": "26. Trail Godefroy Bouillon TGB 75",
        "country": "Belgium",
        "distance": "75km",
        "date": "06.06.2026",
        "url": "https://www.trailrun.be/trail-godefroy-bouillon/",
        "city": "Bouillon",
        "lat": 49.7949836,
        "lng": 5.0672528
    },
    {
        "name": "26. Trail Godefroy Bouillon",
        "country": "Belgium",
        "distance": "100km",
        "date": "06.06.2026",
        "url": "https://www.trailrun.be/trail-godefroy-bouillon/",
        "city": "Bouillon",
        "lat": 49.7949836,
        "lng": 5.0672528
    },
    {
        "name": "Trail de Chimay",
        "country": "Belgium",
        "distance": "50km",
        "date": "09.05.2026",
        "url": "https://www.betrail.run/race/trail.de.chimay/2026/overview",
        "city": "Bourlers",
        "lat": 50.027359,
        "lng": 4.341293
    },
    {
        "name": "Belgian Front Memorial Trail",
        "country": "Belgium",
        "distance": "101km",
        "date": "02.05.2026",
        "url": "http://belgianfrontmemorialtrail.be",
        "city": "Mesen",
        "lat": 50.759827,
        "lng": 2.8998324
    },
    {
        "name": "L.A.T Legends Ardennes Trail 60km",
        "country": "Belgium",
        "distance": "63km",
        "date": "02.05.2026",
        "url": "https://ultratiming.ledossard.com/inscription/index.php?id=3051",
        "city": "Lamormenil",
        "lat": 50.2542118,
        "lng": 5.6378252
    },
    {
        "name": "L.A.T Legends Ardennes Trail 100km",
        "country": "Belgium",
        "distance": "111km",
        "date": "02.05.2026",
        "url": "https://ultratiming.ledossard.com/inscription/index.php?id=3051",
        "city": "Nisramont",
        "lat": 50.1353549,
        "lng": 5.6471185
    },
    {
        "name": "L.A.T Legends Ardennes Trail - La Saint Remacle Ultra",
        "country": "Belgium",
        "distance": "195km",
        "date": "01.05.2026",
        "url": "https://ultratiming.ledossard.com/inscription/index.php?id=3051",
        "city": "Ocquier",
        "lat": 50.3966356,
        "lng": 5.3961397
    },
    {
        "name": "6. Legends Backyard Ultra",
        "country": "Belgium",
        "distance": "116h",
        "date": "25.04.2026",
        "url": "https://www.backyardbelgium.com/",
        "city": "Retie",
        "lat": 51.2675862,
        "lng": 5.0843883
    },
    {
        "name": "LaThare\u00e9 Trail  56 km",
        "country": "Belgium",
        "distance": "56km",
        "date": "14.03.2026",
        "url": "https://www.latharee-trail.be/",
        "city": "Rettigny",
        "lat": 50.1678509,
        "lng": 5.8801729
    },
    {
        "name": "5\u00e8me Trail de la Siberie - 50km",
        "country": "Belgium",
        "distance": "52km",
        "date": "21.02.2026",
        "url": "https://www.trail-de-la-siberie.com/",
        "city": "Profondeville",
        "lat": 50.3762043,
        "lng": 4.8675024
    },
    {
        "name": "5\u00e8me Trail de la Siberie - 75km",
        "country": "Belgium",
        "distance": "76km",
        "date": "21.02.2026",
        "url": "https://www.trail-de-la-siberie.com/",
        "city": "Profondeville",
        "lat": 50.3762043,
        "lng": 4.8675024
    },
    {
        "name": "5\u00e8me Trail de la Siberie - 100km",
        "country": "Belgium",
        "distance": "101km",
        "date": "21.02.2026",
        "url": "https://www.trail-de-la-siberie.com/",
        "city": "Profondeville",
        "lat": 50.3762043,
        "lng": 4.8675024
    },
    {
        "name": "5\u00e8me Trail de la Siberie - 125km",
        "country": "Belgium",
        "distance": "128km",
        "date": "21.02.2026",
        "url": "https://www.trail-de-la-siberie.com/",
        "city": "Profondeville",
        "lat": 50.3762043,
        "lng": 4.8675024
    },
    {
        "name": "1\u00e8re Ultra Trail de la Sib\u00e9rie - 160km",
        "country": "Belgium",
        "distance": "161km",
        "date": "20.02.2026",
        "url": "https://www.trail-de-la-siberie.com/",
        "city": "Profondeville",
        "lat": 50.3762043,
        "lng": 4.8675024
    },
    {
        "name": "Castle Trail Bouillon",
        "country": "Belgium",
        "distance": "50km",
        "date": "15.02.2026",
        "url": "http://www.trailrun.be",
        "city": "Bouillon",
        "lat": 49.7949836,
        "lng": 5.0672528
    },
    {
        "name": "Houffatrail 50km",
        "country": "Belgium",
        "distance": "50km",
        "date": "24.01.2026",
        "url": "https://passionforsports.eu/en-houffatrail?count=1",
        "city": "Houffalize",
        "lat": 50.1323761,
        "lng": 5.7886928
    },
    {
        "name": "Houffatrail 63km",
        "country": "Belgium",
        "distance": "63km",
        "date": "24.01.2026",
        "url": "https://passionforsports.eu/en-houffatrail?count=1",
        "city": "Houffalize",
        "lat": 50.1323761,
        "lng": 5.7886928
    },
    {
        "name": "Veluwezoom Trail - Winter",
        "country": "Netherlands",
        "distance": "58km",
        "date": "29.12.2024",
        "url": "https://cairnadventures.nl/trail/winter-editie-2024-veluwezoom-trail-walk/",
        "city": "Dieren",
        "lat": 52.0526703,
        "lng": 6.1014431
    },
    {
        "name": "2e Sint Annen 240 - 50mi",
        "country": "Netherlands",
        "distance": "50mi",
        "date": "27.12.2024",
        "url": "https://runningrunn.nl/240/2024/240km.php",
        "city": "Sint Annen",
        "lat": 53.2979462,
        "lng": 6.6652567
    },
    {
        "name": "UHUT UtrechtseHeuvelUltratrail 100km - Rhenen Loop split",
        "country": "Netherlands",
        "distance": "50km",
        "date": "01.12.2024",
        "url": "https://www.trail-events.eu/EVENT-Utrechtse-Heuvelrug-Ultra-Trail-Winter-2024",
        "city": "Leersum",
        "lat": 52.0102642,
        "lng": 5.4332757
    },
    {
        "name": "UHUT UtrechtseHeuvelUltratrail - Rhenen Loop",
        "country": "Netherlands",
        "distance": "50km",
        "date": "01.12.2024",
        "url": "https://www.trail-events.eu/EVENT-Utrechtse-Heuvelrug-Ultra-Trail-Winter-2024",
        "city": "Leersum",
        "lat": 52.0102642,
        "lng": 5.4332757
    },
    {
        "name": "Voorne's Duin Trail",
        "country": "Netherlands",
        "distance": "60km",
        "date": "01.12.2024",
        "url": "https://www.voornesduintrail.nl ",
        "city": "Oostvoorne",
        "lat": 51.914271,
        "lng": 4.1038932
    },
    {
        "name": "UHUT UtrechtseHeuvelUltratrail 100km - Doorn Loop split",
        "country": "Netherlands",
        "distance": "50km",
        "date": "30.11.2024",
        "url": "https://www.trail-events.eu/EVENT-Utrechtse-Heuvelrug-Ultra-Trail-Winter-2024",
        "city": "Leersum",
        "lat": 52.0102642,
        "lng": 5.4332757
    },
    {
        "name": "UHUT UtrechtseHeuvelUltratrail - Doorn Loop",
        "country": "Netherlands",
        "distance": "50km",
        "date": "30.11.2024",
        "url": "https://www.trail-events.eu/EVENT-Utrechtse-Heuvelrug-Ultra-Trail-Winter-2024",
        "city": "Leersum",
        "lat": 52.0102642,
        "lng": 5.4332757
    },
    {
        "name": "Graef Castricum Trail Ultra 60km",
        "country": "Netherlands",
        "distance": "60km",
        "date": "24.11.2024",
        "url": "https://cairnadventures.nl/trail/graef-castricum-trail/",
        "city": "Castricum",
        "lat": 52.5496739,
        "lng": 4.6696185
    },
    {
        "name": "LauwersmeerLoop",
        "country": "Netherlands",
        "distance": "60km",
        "date": "03.11.2024",
        "url": "https://ultragrunnen.nl/lauwersmeerloop/",
        "city": "Zoutkamp",
        "lat": 53.3369602,
        "lng": 6.3011339
    },
    {
        "name": "3. Gaasterland Trail",
        "country": "Netherlands",
        "distance": "50km",
        "date": "26.10.2024",
        "url": "https://gaasterlandtrail.nl/",
        "city": "Harich",
        "lat": 52.902242,
        "lng": 5.5642127
    },
    {
        "name": "Indian Summer Ultra 100 km",
        "country": "Netherlands",
        "distance": "100km",
        "date": "12.10.2024",
        "url": "http://IndianSummerUltra.nl",
        "city": "Gasselte",
        "lat": 52.971916,
        "lng": 6.7921853
    },
    {
        "name": "Indian Summer Ultra 75 km",
        "country": "Netherlands",
        "distance": "75km",
        "date": "12.10.2024",
        "url": "http://indiansummerultra.nl",
        "city": "Gasselte",
        "lat": 52.971916,
        "lng": 6.7921853
    },
    {
        "name": "Indian Summer Ultra 50 km",
        "country": "Netherlands",
        "distance": "50km",
        "date": "12.10.2024",
        "url": "http://indiansummerultra.nl",
        "city": "Gasselte",
        "lat": 52.971916,
        "lng": 6.7921853
    },
    {
        "name": "Brekeld Runners Trail",
        "country": "Netherlands",
        "distance": "50km",
        "date": "05.10.2024",
        "url": "https://www.brekeldrunnerstrail.nl/",
        "city": "Rijssen",
        "lat": 52.3080276,
        "lng": 6.5213004
    },
    {
        "name": "18. Sri Chinmoy 6-Stunden-Lauf Amsterdam",
        "country": "Netherlands",
        "distance": "6h",
        "date": "28.09.2024",
        "url": "http://nl.srichinmoyraces.org/",
        "city": "Amstelveen",
        "lat": 52.3028209,
        "lng": 4.8596844
    },
    {
        "name": "Zevenheuvelentrail",
        "country": "Netherlands",
        "distance": "60km",
        "date": "21.09.2024",
        "url": "https://www.zevenheuvelentrail.nl/zevenheuvelentrail",
        "city": "Nijmegen",
        "lat": 51.8474946,
        "lng": 5.8637771
    },
    {
        "name": "Zevenheuvelentrail - NK trailrunning lange trail",
        "country": "Netherlands",
        "distance": "60km",
        "date": "21.09.2024",
        "url": "https://www.zevenheuvelentrail.nl/nk-trailrunning",
        "city": "Nijmegen",
        "lat": 51.8474946,
        "lng": 5.8637771
    },
    {
        "name": "48. RUN Winschoten 100 km - open race",
        "country": "Netherlands",
        "distance": "100km",
        "date": "14.09.2024",
        "url": "http://runwinschoten.nl",
        "city": "Winschoten",
        "lat": 53.143001,
        "lng": 7.0380717
    },
    {
        "name": "48. RUN Winschoten 50 km - open race",
        "country": "Netherlands",
        "distance": "50km",
        "date": "14.09.2024",
        "url": "http://www.runwinschoten.nl",
        "city": "Winschoten",
        "lat": 53.143001,
        "lng": 7.0380717
    },
    {
        "name": "48. RUN Winschoten 100 km - Nederlands Kampioenschap",
        "country": "Netherlands",
        "distance": "100km",
        "date": "14.09.2024",
        "url": "http://runwinschoten.nl",
        "city": "Winschoten",
        "lat": 53.143001,
        "lng": 7.0380717
    },
    {
        "name": "48. RUN Winschoten 50 km - Nederlands Kampioenschap",
        "country": "Netherlands",
        "distance": "50km",
        "date": "14.09.2024",
        "url": "http://www.runwinschoten.nl",
        "city": "Winschoten",
        "lat": 53.143001,
        "lng": 7.0380717
    },
    {
        "name": "De 6 Uur van Deventer",
        "country": "Netherlands",
        "distance": "6h",
        "date": "13.07.2024",
        "url": "http://marathonplus.nl",
        "city": "Deventer",
        "lat": 52.2694897,
        "lng": 6.2364886
    },
    {
        "name": "De 6 Uur van Deventer - 50km Split",
        "country": "Netherlands",
        "distance": "50km",
        "date": "13.07.2024",
        "url": "http://marathonplus.nl",
        "city": "Deventer",
        "lat": 52.2694897,
        "lng": 6.2364886
    },
    {
        "name": "VechtdalTrail",
        "country": "Netherlands",
        "distance": "50km",
        "date": "06.07.2024",
        "url": "https://vechtdaltrail.nl/",
        "city": "Ommen",
        "lat": 52.510347,
        "lng": 6.4524247
    },
    {
        "name": "23 Zes uur van de Haarlemmermeer",
        "country": "Netherlands",
        "distance": "6h",
        "date": "29.06.2024",
        "url": "https://avhaarlemmermeer.nl/6uur/",
        "city": "Hoofddorp",
        "lat": 52.305554,
        "lng": 4.6926644
    },
    {
        "name": "Rondom Stad",
        "country": "Netherlands",
        "distance": "66km",
        "date": "22.06.2024",
        "url": "https://runningrunn.nl/rondomstad/2024/informatie.php",
        "city": "Sint Annen",
        "lat": 53.2979462,
        "lng": 6.6652567
    },
    {
        "name": "3rd Liberation Trail - stage 5: Eindhoven - Groesbeek",
        "country": "Netherlands",
        "distance": "81km",
        "date": "15.06.2024",
        "url": "https://liberationtrail.org/",
        "city": "Eindhoven",
        "lat": 51.4392648,
        "lng": 5.478633
    },
    {
        "name": "3 Pierewaai Summer Beach Trail",
        "country": "Netherlands",
        "distance": "50km",
        "date": "01.06.2024",
        "url": "https://pierewaaitrail.nl/",
        "city": "IJmuiden",
        "lat": 52.4574236,
        "lng": 4.6111981
    },
    {
        "name": "Linie1629ultra",
        "country": "Netherlands",
        "distance": "50km",
        "date": "01.06.2024",
        "url": "http://Linie1629ultra.nl",
        "city": "Vught",
        "lat": 51.6511806,
        "lng": 5.2368001
    },
    {
        "name": "Amerongse Berg Ultra 50k",
        "country": "Netherlands",
        "distance": "50km",
        "date": "26.05.2024",
        "url": "https://www.trail-events.eu/EVENT-Amerongse-Berg-Ultra-26-05-2024",
        "city": "Overberg",
        "lat": 52.0390484,
        "lng": 5.4964645
    },
    {
        "name": "2de Hel van Westeremden, een klein paradijs",
        "country": "Netherlands",
        "distance": "45km",
        "date": "25.05.2024",
        "url": "https://runningrunn.nl/hvw/2024/hvw.php",
        "city": "Sint Annen",
        "lat": 53.2979462,
        "lng": 6.6652567
    },
    {
        "name": "VAM12",
        "country": "Netherlands",
        "distance": "12h",
        "date": "25.05.2024",
        "url": "https://runforestrun.nl/vam",
        "city": "Wijster",
        "lat": 52.8148592,
        "lng": 6.5163531
    },
    {
        "name": "VAM8",
        "country": "Netherlands",
        "distance": "8h",
        "date": "25.05.2024",
        "url": "https://runforestrun.nl/vam",
        "city": "Wijster",
        "lat": 52.8148592,
        "lng": 6.5163531
    },
    {
        "name": "12-Uurs Run Middelburg",
        "country": "Netherlands",
        "distance": "13h",
        "date": "25.05.2024",
        "url": "https://www.facebook.com/events/1465860133997868",
        "city": "Middelburg",
        "lat": 51.4996784,
        "lng": 3.6137371
    },
    {
        "name": "18. Sri Chinmoy 50 km-Lauf Amsterdam",
        "country": "Netherlands",
        "distance": "50km",
        "date": "24.05.2024",
        "url": "http://nl.srichinmoyraces.org/",
        "city": "Amstelveen",
        "lat": 52.3028209,
        "lng": 4.8596844
    },
    {
        "name": "18. Sri Chinmoy 100km-Lauf Amsterdam",
        "country": "Netherlands",
        "distance": "100km",
        "date": "24.05.2024",
        "url": "http://nl.srichinmoyraces.org/",
        "city": "Amstelveen",
        "lat": 52.3028209,
        "lng": 4.8596844
    },
    {
        "name": "3 Pallas 67 Ultrameerdaagse - stage 5 - Arnhem - Wageningen",
        "country": "Netherlands",
        "distance": "51km",
        "date": "12.05.2024",
        "url": "https://www.pallas67.nl/p67/?page_id=25316",
        "city": "Arnhem",
        "lat": 51.984257,
        "lng": 5.9108573
    },
    {
        "name": "80 van Balk",
        "country": "Netherlands",
        "distance": "80km",
        "date": "11.05.2024",
        "url": "http://www.gaasterlandrun.nl",
        "city": "BALK",
        "lat": 52.8989296,
        "lng": 5.5830455
    },
    {
        "name": "Salomon Koning van Spanje Trail - 80km",
        "country": "Netherlands",
        "distance": "81km",
        "date": "11.05.2024",
        "url": "https://www.mudsweattrails.nl/koningvanspanje/",
        "city": "Gulpen",
        "lat": 50.8139879,
        "lng": 5.8899585
    },
    {
        "name": "3 Pallas 67 Ultrameerdaagse - stage 4 - Arnhem - Veluwe",
        "country": "Netherlands",
        "distance": "51km",
        "date": "11.05.2024",
        "url": "https://www.pallas67.nl/p67/?page_id=25316",
        "city": "Arnhem",
        "lat": 51.984257,
        "lng": 5.9108573
    },
    {
        "name": "3 Pallas 67 Ultrameerdaagse - stage 3 - Arnhem - Lobith",
        "country": "Netherlands",
        "distance": "66km",
        "date": "10.05.2024",
        "url": "https://www.pallas67.nl/p67/?page_id=25316",
        "city": "Arnhem",
        "lat": 51.984257,
        "lng": 5.9108573
    },
    {
        "name": "3 Pallas 67 Ultrameerdaagse - stage 2 - Arnhem - Doesburg",
        "country": "Netherlands",
        "distance": "51km",
        "date": "09.05.2024",
        "url": "https://www.pallas67.nl/p67/?page_id=25316",
        "city": "Arnhem",
        "lat": 51.984257,
        "lng": 5.9108573
    },
    {
        "name": "3 Pallas 67 Ultrameerdaagse - stage 1 - Wageningen - Arnhem",
        "country": "Netherlands",
        "distance": "51km",
        "date": "08.05.2024",
        "url": "https://www.pallas67.nl/p67/?page_id=25316",
        "city": "Wageningen",
        "lat": 51.9663016,
        "lng": 5.6662814
    },
    {
        "name": "3. Petranpad Ultra Trail 60k",
        "country": "Netherlands",
        "distance": "64km",
        "date": "04.05.2024",
        "url": "https://petranultra.nl/",
        "city": "Meerlo",
        "lat": 51.51187,
        "lng": 6.0869555
    },
    {
        "name": "5 Petranpad Ultra Run 112k",
        "country": "Netherlands",
        "distance": "112km",
        "date": "04.05.2024",
        "url": "https://petranultra.nl/",
        "city": "Meerlo",
        "lat": 51.51187,
        "lng": 6.0869555
    },
    {
        "name": "38e Eemlake Run (Eemmeerloop)",
        "country": "Netherlands",
        "distance": "50km",
        "date": "20.04.2024",
        "url": "http://www.quovadisbunschoten.nl",
        "city": "Bunschoten",
        "lat": 52.2391743,
        "lng": 5.3734101
    },
    {
        "name": "Pegasus Ultra Trail",
        "country": "Netherlands",
        "distance": "50km",
        "date": "20.04.2024",
        "url": "http://www.trailclub.nl",
        "city": "Ede",
        "lat": 52.0716826,
        "lng": 5.7455106
    },
    {
        "name": "Runforestrun Hart van Drenthe",
        "country": "Netherlands",
        "distance": "52km",
        "date": "13.04.2024",
        "url": "https://runforestrun.nl/hartvandrenthe/",
        "city": "Ellertshaar",
        "lat": 52.8964673,
        "lng": 6.7409769
    },
    {
        "name": "Cauberg Trail",
        "country": "Netherlands",
        "distance": "54km",
        "date": "30.03.2024",
        "url": "https://www.caubergtrail.nl/",
        "city": "Valkenburg",
        "lat": 50.8647531,
        "lng": 5.8312518
    },
    {
        "name": "3 6hrs Sittard - 50km Split",
        "country": "Netherlands",
        "distance": "50km",
        "date": "24.03.2024",
        "url": "https://www.24hrssittard.com/",
        "city": "Sittard",
        "lat": 50.9974235,
        "lng": 5.8666627
    },
    {
        "name": "17e De Zestig van Texel",
        "country": "Netherlands",
        "distance": "60km",
        "date": "24.03.2024",
        "url": "https://dezestigvantexel.nl/",
        "city": "Den Hoorn (Texel)"
    },
    {
        "name": "17e De 120 van Texel",
        "country": "Netherlands",
        "distance": "120km",
        "date": "24.03.2024",
        "url": "https://dezestigvantexel.nl/",
        "city": "Den Burg (Texel)"
    },
    {
        "name": "3. 6hrs Sittard",
        "country": "Netherlands",
        "distance": "6h",
        "date": "24.03.2024",
        "url": "https://www.24hrssittard.com/",
        "city": "Sittard",
        "lat": 50.9974235,
        "lng": 5.8666627
    },
    {
        "name": "3. 24hrs Sittard - 50km Split",
        "country": "Netherlands",
        "distance": "50km",
        "date": "23.03.2024",
        "url": "https://www.24hrssittard.com/",
        "city": "Sittard",
        "lat": 50.9974235,
        "lng": 5.8666627
    },
    {
        "name": "4. 12hrs Sittard - 50km Split",
        "country": "Netherlands",
        "distance": "50km",
        "date": "23.03.2024",
        "url": "https://www.24hrssittard.com/",
        "city": "Sittard",
        "lat": 50.9974235,
        "lng": 5.8666627
    },
    {
        "name": "10e Salomon Vuurtorentrail Festival Ameland 60km",
        "country": "Netherlands",
        "distance": "60km",
        "date": "17.03.2024",
        "url": "https://cairnadventures.nl/trail/vuurtorentrail-festival-ameland/",
        "city": "Hollum Ameland"
    },
    {
        "name": "11. SallandTrail 80 km (50 Mijl)",
        "country": "Netherlands",
        "distance": "80km",
        "date": "09.03.2024",
        "url": "http://www.sallandtrail.nl/",
        "city": "Nijverdal",
        "lat": 52.3592015,
        "lng": 6.4654075
    },
    {
        "name": "11. SallandTrail 50 km",
        "country": "Netherlands",
        "distance": "50km",
        "date": "09.03.2024",
        "url": "http://www.sallandtrail.nl/",
        "city": "Nijverdal",
        "lat": 52.3592015,
        "lng": 6.4654075
    },
    {
        "name": "Trailrun Terschelling",
        "country": "Netherlands",
        "distance": "50km",
        "date": "03.03.2024",
        "url": "http://www.trailrunterschelling.nl/",
        "city": "West-Terschelling",
        "lat": 53.3613027,
        "lng": 5.2160421
    },
    {
        "name": "3 65 van Walcheren",
        "country": "Netherlands",
        "distance": "65km",
        "date": "03.03.2024",
        "url": "http://65vanwalcheren.nl",
        "city": "Vrouwenpolder",
        "lat": 51.576602,
        "lng": 3.6165776
    },
    {
        "name": "5. Bosbokken Trail",
        "country": "Netherlands",
        "distance": "47km",
        "date": "25.02.2024",
        "url": "https://www.bosbokken.nl/",
        "city": "Burgh-Haamstede",
        "lat": 51.7022441,
        "lng": 3.722061
    },
    {
        "name": "Dutch Coast Ultra Run by Night 50km",
        "country": "Netherlands",
        "distance": "50km",
        "date": "09.02.2024",
        "url": "https://www.facebook.com/groups/140119496133094",
        "city": "Den Helder",
        "lat": 52.9529894,
        "lng": 4.8267592
    },
    {
        "name": "Dutch Coast Ultra Run by Night 75km",
        "country": "Netherlands",
        "distance": "75km",
        "date": "09.02.2024",
        "url": "https://www.facebook.com/groups/140119496133094",
        "city": "Den Helder",
        "lat": 52.9529894,
        "lng": 4.8267592
    },
    {
        "name": "5th Drielandenpunt Winter Trail",
        "country": "Netherlands",
        "distance": "50km",
        "date": "04.02.2024",
        "url": "https://www.passionforsports.eu/nl-drielandenpunttrailwinter?count=1",
        "city": "Vaals",
        "lat": 50.7781016,
        "lng": 5.9810696
    },
    {
        "name": "Leenderbos Ultra Trail",
        "country": "Netherlands",
        "distance": "50km",
        "date": "28.01.2024",
        "url": "https://www.trail-events.eu/EVENT-Leenderbos-Ultra-Trail-29-01-2023",
        "city": "Leende",
        "lat": 51.3484037,
        "lng": 5.5518897
    },
    {
        "name": "11. Pierewaai Trail",
        "country": "Netherlands",
        "distance": "45km",
        "date": "20.01.2024",
        "url": "https://pierewaaitrail.nl",
        "city": "IJmuiden",
        "lat": 52.4574236,
        "lng": 4.6111981
    },
    {
        "name": "Friends of the SM run ultra",
        "country": "Netherlands",
        "distance": "45km",
        "date": "27.12.2025",
        "url": "http://www.bemelenbeweegt.nl",
        "city": "Meerssen",
        "lat": 50.9047092,
        "lng": 5.7352078
    },
    {
        "name": "West Coast Challenge - Halfway",
        "country": "Netherlands",
        "distance": "62km",
        "date": "13.12.2025",
        "url": "https://www.westcoastchallenge.nl/",
        "city": "Wijk aan Zee",
        "lat": 52.4939272,
        "lng": 4.593759
    },
    {
        "name": "Voorne's Duin Trail",
        "country": "Netherlands",
        "distance": "60km",
        "date": "07.12.2025",
        "url": "https://www.voornesduintrail.nl",
        "city": "Oostvoorne",
        "lat": 51.914271,
        "lng": 4.1038932
    },
    {
        "name": "UHUT UtrechtseHeuvelUltratrail - Doorn Loop",
        "country": "Netherlands",
        "distance": "50km",
        "date": "30.11.2025",
        "url": "https://www.trail-events.eu/EVENT-Utrechtse-Heuvelrug-Ultra-Trail-Winter-UHUT100-29-11-2025",
        "city": "Leersum",
        "lat": 52.0102642,
        "lng": 5.4332757
    },
    {
        "name": "UHUT UtrechtseHeuvelUltratrail - Rhenen Loop",
        "country": "Netherlands",
        "distance": "50km",
        "date": "29.11.2025",
        "url": "https://www.trail-events.eu/EVENT-Utrechtse-Heuvelrug-Ultra-Trail-Winter-UHUT100-29-11-2025",
        "city": "Leersum",
        "lat": 52.0102642,
        "lng": 5.4332757
    },
    {
        "name": "7. Graef Castricum Trail Ultra 60km",
        "country": "Netherlands",
        "distance": "60km",
        "date": "23.11.2025",
        "url": "https://cairnadventures.nl/trail/graef-castricum-trail/",
        "city": "Castricum",
        "lat": 52.5496739,
        "lng": 4.6696185
    },
    {
        "name": "4. Gaasterland Trail",
        "country": "Netherlands",
        "distance": "50km",
        "date": "25.10.2025",
        "url": "https://gaasterlandtrail.nl/",
        "city": "Harich",
        "lat": 52.902242,
        "lng": 5.5642127
    },
    {
        "name": "Dutch Backyard Ultra",
        "country": "Netherlands",
        "distance": "36h",
        "date": "18.10.2025",
        "url": "https://www.trail-events.eu/EVENT-Dutch-Backyard-Ultra-10-2025#/",
        "city": "Zeewolde",
        "lat": 52.331111,
        "lng": 5.5430312
    },
    {
        "name": "Indian Summer Ultra 100 km",
        "country": "Netherlands",
        "distance": "100km",
        "date": "11.10.2025",
        "url": "http://indiansummerultra.nl",
        "city": "Gasselte",
        "lat": 52.971916,
        "lng": 6.7921853
    },
    {
        "name": "Indian Summer Ultra 50 km",
        "country": "Netherlands",
        "distance": "50km",
        "date": "11.10.2025",
        "url": "http://indiansummerultra.nl",
        "city": "Gasselte",
        "lat": 52.971916,
        "lng": 6.7921853
    },
    {
        "name": "Indian Summer Ultra 75 km",
        "country": "Netherlands",
        "distance": "75km",
        "date": "11.10.2025",
        "url": "http://indiansummerultra.nl",
        "city": "Gasselte",
        "lat": 52.971916,
        "lng": 6.7921853
    },
    {
        "name": "Doelgericht deur Stad",
        "country": "Netherlands",
        "distance": "50km",
        "date": "04.10.2025",
        "url": "https://ultragrunnen.nl/doelgericht-deur-stad/",
        "city": "Groningen",
        "lat": 53.2190652,
        "lng": 6.5680077
    },
    {
        "name": "Fun Runner",
        "country": "Netherlands",
        "distance": "47.4km",
        "date": "04.10.2025",
        "url": "http://funrunner-heerlen.nl",
        "city": "Berg en Dal",
        "lat": 51.8113566,
        "lng": 5.9170257
    },
    {
        "name": "Fun Runner",
        "country": "Netherlands",
        "distance": "50.1km",
        "date": "04.10.2025",
        "url": "http://funrunner-heerlen.nl",
        "city": "Berg en Dal",
        "lat": 51.8113566,
        "lng": 5.9170257
    },
    {
        "name": "Pegasus Ultra Trail",
        "country": "Netherlands",
        "distance": "50km",
        "date": "04.10.2025",
        "url": "http://www.trailclub.nl",
        "city": "Ede",
        "lat": 52.0716826,
        "lng": 5.7455106
    },
    {
        "name": "Brekeld Runners Trail",
        "country": "Netherlands",
        "distance": "50km",
        "date": "04.10.2025",
        "url": "https://www.brekeldrunnerstrail.nl/",
        "city": "Rijssen",
        "lat": 52.3080276,
        "lng": 6.5213004
    },
    {
        "name": "Devil's Ultra",
        "country": "Netherlands",
        "distance": "24h",
        "date": "04.10.2025",
        "url": "https://devilstrail.nl/evenementen/devils-trail-utrechtse-heuvelrug/",
        "city": "Doornse"
    },
    {
        "name": "Zevenheuvelentrail",
        "country": "Netherlands",
        "distance": "56km",
        "date": "27.09.2025",
        "url": "https://www.zevenheuvelentrail.nl/",
        "city": "Heilig Landstichting",
        "lat": 51.8171099,
        "lng": 5.8916867
    },
    {
        "name": "Zevenheuvelentrail - NK trailrunning lange trail",
        "country": "Netherlands",
        "distance": "56km",
        "date": "27.09.2025",
        "url": "https://www.zevenheuvelentrail.nl/nk-trailrunning",
        "city": "Heilig Landstichting",
        "lat": 51.8171099,
        "lng": 5.8916867
    },
    {
        "name": "18. Sri Chinmoy 6-Stunden-Lauf Amsterdam",
        "country": "Netherlands",
        "distance": "6h",
        "date": "27.09.2025",
        "url": "http://nl.srichinmoyraces.org/",
        "city": "Amstelveen",
        "lat": 52.3028209,
        "lng": 4.8596844
    },
    {
        "name": "49. RUN Winschoten 100 km",
        "country": "Netherlands",
        "distance": "100km",
        "date": "13.09.2025",
        "url": "http://www.runwinschoten.nl",
        "city": "Winschoten",
        "lat": 53.143001,
        "lng": 7.0380717
    },
    {
        "name": "49. RUN Winschoten 50 km",
        "country": "Netherlands",
        "distance": "50km",
        "date": "13.09.2025",
        "url": "http://www.runwinschoten.nl",
        "city": "Winschoten",
        "lat": 53.143001,
        "lng": 7.0380717
    },
    {
        "name": "Ommetjesultra 55km",
        "country": "Netherlands",
        "distance": "55km",
        "date": "07.09.2025",
        "url": "https://ommetjesultra.nl",
        "city": "Wijchen",
        "lat": 51.8202529,
        "lng": 5.6960903
    },
    {
        "name": "1 Groote Heide Ultra",
        "country": "Netherlands",
        "distance": "50km",
        "date": "30.08.2025",
        "url": "https://www.trail-events.eu/EVENT-Groote-Heide-Ultra-30-08-2025",
        "city": "Leende, Noord-Brabant"
    },
    {
        "name": "Eddy 60 Ultra",
        "country": "Netherlands",
        "distance": "60km",
        "date": "27.07.2025",
        "url": "https://mdlopers.nl/zondag-27-juli-2025-eddy-60-marathon-assen-e-o/",
        "city": "Assen",
        "lat": 52.997225,
        "lng": 6.5506458
    },
    {
        "name": "VUT100 (Veluwse Ultra Trail) - 50km zuid",
        "country": "Netherlands",
        "distance": "50km",
        "date": "26.07.2025",
        "url": "https://www.trail-events.eu/EVENT-Veluwse-Ultra-Trail-VUT100-26-07-2025",
        "city": "Elspeet",
        "lat": 52.2910649,
        "lng": 5.7884632
    },
    {
        "name": "VUT100 (Veluwse Ultra Trail) - 50km noord",
        "country": "Netherlands",
        "distance": "50km",
        "date": "26.07.2025",
        "url": "https://www.trail-events.eu/EVENT-Veluwse-Ultra-Trail-VUT100-26-07-2025",
        "city": "Elspeet",
        "lat": 52.2910649,
        "lng": 5.7884632
    },
    {
        "name": "VUT100 (Veluwse Ultra Trail) - 75km",
        "country": "Netherlands",
        "distance": "75km",
        "date": "26.07.2025",
        "url": "https://www.trail-events.eu/EVENT-Veluwse-Ultra-Trail-VUT100-26-07-2025",
        "city": "Elspeet",
        "lat": 52.2910649,
        "lng": 5.7884632
    },
    {
        "name": "VUT100 (Veluwse Ultra Trail) - 100km",
        "country": "Netherlands",
        "distance": "100km",
        "date": "26.07.2025",
        "url": "https://www.trail-events.eu/EVENT-Veluwse-Ultra-Trail-VUT100-26-07-2025",
        "city": "Elspeet",
        "lat": 52.2910649,
        "lng": 5.7884632
    },
    {
        "name": "VechtdalTrail",
        "country": "Netherlands",
        "distance": "50km",
        "date": "05.07.2025",
        "url": "https://vechtdaltrail.nl",
        "city": "Ommen",
        "lat": 52.510347,
        "lng": 6.4524247
    },
    {
        "name": "24 Zes uur van de Haarlemmermeer",
        "country": "Netherlands",
        "distance": "6h",
        "date": "28.06.2025",
        "url": "https://avhaarlemmermeer.nl/6uur/",
        "city": "Hoofddorp",
        "lat": 52.305554,
        "lng": 4.6926644
    },
    {
        "name": "BUT100 (Brabants UltraTrail) - 50 km Zuid",
        "country": "Netherlands",
        "distance": "50km",
        "date": "28.06.2025",
        "url": "https://www.trail-events.eu/EVENT-Brabantse-Ultra-Trail-BUT100-28-06-2025",
        "city": "Leende",
        "lat": 51.3484037,
        "lng": 5.5518897
    },
    {
        "name": "BUT100 (Brabants UltraTrail) - 50 km Noord",
        "country": "Netherlands",
        "distance": "50km",
        "date": "28.06.2025",
        "url": "https://www.trail-events.eu/EVENT-Brabantse-Ultra-Trail-BUT100-28-06-2025",
        "city": "Leende",
        "lat": 51.3484037,
        "lng": 5.5518897
    },
    {
        "name": "BUT100 (Brabants UltraTrail) - 75 km",
        "country": "Netherlands",
        "distance": "75km",
        "date": "28.06.2025",
        "url": "https://www.trail-events.eu/EVENT-Brabantse-Ultra-Trail-BUT100-28-06-2025",
        "city": "Leende",
        "lat": 51.3484037,
        "lng": 5.5518897
    },
    {
        "name": "BUT100 (Brabants UltraTrail) - 100 km",
        "country": "Netherlands",
        "distance": "100km",
        "date": "28.06.2025",
        "url": "https://www.trail-events.eu/EVENT-Brabantse-Ultra-Trail-BUT100-28-06-2025",
        "city": "Leende",
        "lat": 51.3484037,
        "lng": 5.5518897
    },
    {
        "name": "4 Pierewaai Summer Beach Trail",
        "country": "Netherlands",
        "distance": "50km",
        "date": "21.06.2025",
        "url": "https://pierewaaitrail.nl/",
        "city": "IJmuiden",
        "lat": 52.4574236,
        "lng": 4.6111981
    },
    {
        "name": "3. Rondom Stad",
        "country": "Netherlands",
        "distance": "70km",
        "date": "21.06.2025",
        "url": "https://runningrunn.nl/rondomstad/2025/informatie.php",
        "city": "Sint Annen",
        "lat": 53.2979462,
        "lng": 6.6652567
    },
    {
        "name": "12-Uurs Run Middelburg",
        "country": "Netherlands",
        "distance": "13h",
        "date": "20.06.2025",
        "url": "https://www.facebook.com/events/1465860133997868",
        "city": "Middelburg",
        "lat": 51.4996784,
        "lng": 3.6137371
    },
    {
        "name": "4th Liberation Trail - stage 5: Eindhoven - Nijmegen",
        "country": "Netherlands",
        "distance": "81km",
        "date": "14.06.2025",
        "url": "https://liberationtrail.org/",
        "city": "Eindhoven",
        "lat": 51.4392648,
        "lng": 5.478633
    },
    {
        "name": "Marathon van Kerkwerve",
        "country": "Netherlands",
        "distance": "45.8km",
        "date": "14.06.2025",
        "url": "http://www.funrunner-heerlen.nl/kerkwerve-marathon-45-8-km.pdf",
        "city": "Kerkwerve",
        "lat": 51.6863988,
        "lng": 3.8994996
    },
    {
        "name": "Dik doen in de Toen",
        "country": "Netherlands",
        "distance": "50km",
        "date": "09.06.2025",
        "url": "https://ultragrunnen.nl/dik-doen-in-de-toen/",
        "city": "Groningen",
        "lat": 53.2190652,
        "lng": 6.5680077
    },
    {
        "name": "5 Linie1629ultra",
        "country": "Netherlands",
        "distance": "50km",
        "date": "07.06.2025",
        "url": "http://Linie1629ultra.nl",
        "city": "Vught",
        "lat": 51.6511806,
        "lng": 5.2368001
    },
    {
        "name": "4 Pallas 67 Ultrameerdaagse - stage 5",
        "country": "Netherlands",
        "distance": "52km",
        "date": "01.06.2025",
        "url": "https://www.pallas67.nl/p67/?page_id=25316",
        "city": "Heerlen",
        "lat": 50.8775239,
        "lng": 5.9815066
    },
    {
        "name": "4 Pallas 67 Ultrameerdaagse - stage 4",
        "country": "Netherlands",
        "distance": "52.5km",
        "date": "31.05.2025",
        "url": "https://www.pallas67.nl/p67/?page_id=25316",
        "city": "Heerlen",
        "lat": 50.8775239,
        "lng": 5.9815066
    },
    {
        "name": "VAM12",
        "country": "Netherlands",
        "distance": "12h",
        "date": "31.05.2025",
        "url": "https://runforestrun.nl/vam",
        "city": "Wijster",
        "lat": 52.8148592,
        "lng": 6.5163531
    },
    {
        "name": "VAM8",
        "country": "Netherlands",
        "distance": "8h",
        "date": "31.05.2025",
        "url": "https://runforestrun.nl/vam",
        "city": "Wijster",
        "lat": 52.8148592,
        "lng": 6.5163531
    },
    {
        "name": "4 Pallas 67 Ultrameerdaagse - stage 3",
        "country": "Netherlands",
        "distance": "54.5km",
        "date": "30.05.2025",
        "url": "https://www.pallas67.nl/p67/?page_id=25316",
        "city": "Heerlen",
        "lat": 50.8775239,
        "lng": 5.9815066
    },
    {
        "name": "4 Pallas 67 Ultrameerdaagse - stage 2",
        "country": "Netherlands",
        "distance": "53.2km",
        "date": "29.05.2025",
        "url": "https://www.pallas67.nl/p67/?page_id=25316",
        "city": "Heerlen",
        "lat": 50.8775239,
        "lng": 5.9815066
    },
    {
        "name": "4 Pallas 67 Ultrameerdaagse - stage 1",
        "country": "Netherlands",
        "distance": "58km",
        "date": "28.05.2025",
        "url": "https://www.pallas67.nl/p67/?page_id=25316",
        "city": "Heerlen",
        "lat": 50.8775239,
        "lng": 5.9815066
    },
    {
        "name": "UHUT UtrechtseHeuvelUltratrail 75 km - Spring Edition",
        "country": "Netherlands",
        "distance": "75km",
        "date": "24.05.2025",
        "url": "https://www.trail-events.eu/EVENT-Utrechtse-Heuvelrug-Ultra-Trail-UHUT100-24-05-2025",
        "city": "Leersum",
        "lat": 52.0102642,
        "lng": 5.4332757
    },
    {
        "name": "19. Sri Chinmoy 100km-Lauf Amsterdam",
        "country": "Netherlands",
        "distance": "100km",
        "date": "24.05.2025",
        "url": "http://nl.srichinmoyraces.org/",
        "city": "Amstelveen",
        "lat": 52.3028209,
        "lng": 4.8596844
    },
    {
        "name": "19. Sri Chinmoy 50 km-Lauf Amsterdam",
        "country": "Netherlands",
        "distance": "50km",
        "date": "24.05.2025",
        "url": "http://nl.srichinmoyraces.org/",
        "city": "Amstelveen",
        "lat": 52.3028209,
        "lng": 4.8596844
    },
    {
        "name": "UHUT UtrechtseHeuvelUltratrail 50km",
        "country": "Netherlands",
        "distance": "50km",
        "date": "24.05.2025",
        "url": "https://www.trail-events.eu/EVENT-Utrechtse-Heuvelrug-Ultra-Trail-UHUT100-24-05-2025",
        "city": "Leersum",
        "lat": 52.0102642,
        "lng": 5.4332757
    },
    {
        "name": "UHUT UtrechtseHeuvelUltratrail 100km",
        "country": "Netherlands",
        "distance": "100km",
        "date": "24.05.2025",
        "url": "https://www.trail-events.eu/EVENT-Utrechtse-Heuvelrug-Ultra-Trail-UHUT100-24-05-2025",
        "city": "Leersum",
        "lat": 52.0102642,
        "lng": 5.4332757
    },
    {
        "name": "Salomon Koning van Spanje Trail - 72km",
        "country": "Netherlands",
        "distance": "72km",
        "date": "17.05.2025",
        "url": "https://www.mudsweattrails.nl/koningvanspanje/",
        "city": "Gulpen",
        "lat": 50.8139879,
        "lng": 5.8899585
    },
    {
        "name": "Salomon Koning van Spanje Trail - 101km",
        "country": "Netherlands",
        "distance": "101km",
        "date": "17.05.2025",
        "url": "https://www.mudsweattrails.nl/koningvanspanje/",
        "city": "Gulpen",
        "lat": 50.8139879,
        "lng": 5.8899585
    },
    {
        "name": "4. 6hrs Sittard - 50km Split",
        "country": "Netherlands",
        "distance": "50km",
        "date": "04.05.2025",
        "url": "https://www.24hrssittard.com/",
        "city": "Sittard",
        "lat": 50.9974235,
        "lng": 5.8666627
    },
    {
        "name": "4. 6hrs Sittard",
        "country": "Netherlands",
        "distance": "6h",
        "date": "04.05.2025",
        "url": "https://www.24hrssittard.com/",
        "city": "Sittard",
        "lat": 50.9974235,
        "lng": 5.8666627
    },
    {
        "name": "6 Petranpad Ultra Run 112k",
        "country": "Netherlands",
        "distance": "112km",
        "date": "02.05.2025",
        "url": "https://petranultra.nl/",
        "city": "Meerlo",
        "lat": 51.51187,
        "lng": 6.0869555
    },
    {
        "name": "Hollands Duin Ultra",
        "country": "Netherlands",
        "distance": "50km",
        "date": "26.04.2025",
        "url": "https://www.trail-events.eu/EVENT-Hollands-Duin-Ultra-26-04-2025",
        "city": "Noordwijk",
        "lat": 52.2410856,
        "lng": 4.4461969
    },
    {
        "name": "Runforestrun Hart van Drenthe",
        "country": "Netherlands",
        "distance": "52km",
        "date": "12.04.2025",
        "url": "https://runforestrun.nl/hartvandrenthe/",
        "city": "Ellertshaar",
        "lat": 52.8964673,
        "lng": 6.7409769
    },
    {
        "name": "39e Eemlake Run (Eemmeerloop)",
        "country": "Netherlands",
        "distance": "50km",
        "date": "12.04.2025",
        "url": "http://www.quovadisbunschoten.nl",
        "city": "Bunschoten",
        "lat": 52.2391743,
        "lng": 5.3734101
    },
    {
        "name": "Stadspark Ultra",
        "country": "Netherlands",
        "distance": "6h",
        "date": "11.04.2025",
        "url": "https://forms.gle/eJC9gB8Z19LY3swD6",
        "city": "Groningen",
        "lat": 53.2190652,
        "lng": 6.5680077
    },
    {
        "name": "5. Dinah Might 100km Ultra Run",
        "country": "Netherlands",
        "distance": "100km",
        "date": "05.04.2025",
        "url": "https://www.facebook.com/events/1913917769103717/",
        "city": "Emmeloord",
        "lat": 52.7087448,
        "lng": 5.7466367
    },
    {
        "name": "5. Dinah Might 50 Miles Ultra Run",
        "country": "Netherlands",
        "distance": "80km",
        "date": "05.04.2025",
        "url": "https://www.facebook.com/events/1913917769103717/",
        "city": "Emmeloord",
        "lat": 52.7087448,
        "lng": 5.7466367
    },
    {
        "name": "Brabantse Vennen Ultra",
        "country": "Netherlands",
        "distance": "50km",
        "date": "29.03.2025",
        "url": "https://www.trail-events.eu/EVENT-Brabantse-Vennen-Ultra-29-03-2025",
        "city": "Heeze / Noord-Brabant"
    },
    {
        "name": "11e Salomon Vuurtorentrail Festival Ameland 60km",
        "country": "Netherlands",
        "distance": "60km",
        "date": "16.03.2025",
        "url": "https://cairnadventures.nl/trail/vuurtorentrail-festival-ameland/",
        "city": "Hollum Ameland"
    },
    {
        "name": "12. SallandTrail 80 km (50 Mijl)",
        "country": "Netherlands",
        "distance": "80km",
        "date": "08.03.2025",
        "url": "https://sallandtrail.nl/",
        "city": "Nijverdal",
        "lat": 52.3592015,
        "lng": 6.4654075
    },
    {
        "name": "12. SallandTrail 50 km",
        "country": "Netherlands",
        "distance": "50km",
        "date": "08.03.2025",
        "url": "https://sallandtrail.nl/",
        "city": "Nijverdal",
        "lat": 52.3592015,
        "lng": 6.4654075
    },
    {
        "name": "12. SallandTrail 60 km",
        "country": "Netherlands",
        "distance": "60km",
        "date": "08.03.2025",
        "url": "https://sallandtrail.nl/",
        "city": "Nijverdal",
        "lat": 52.3592015,
        "lng": 6.4654075
    },
    {
        "name": "4 65 van Walcheren",
        "country": "Netherlands",
        "distance": "65km",
        "date": "02.03.2025",
        "url": "http://65vanwalcheren.nl",
        "city": "Vrouwenpolder",
        "lat": 51.576602,
        "lng": 3.6165776
    },
    {
        "name": "6. Bosbokken Trail",
        "country": "Netherlands",
        "distance": "47km",
        "date": "23.02.2025",
        "url": "https://www.bosbokken.nl/",
        "city": "Burgh-Haamstede",
        "lat": 51.7022441,
        "lng": 3.722061
    },
    {
        "name": "Amerongse Berg Ultra 50k",
        "country": "Netherlands",
        "distance": "50km",
        "date": "23.02.2025",
        "url": "https://www.trail-events.eu/EVENT-Amerongse-Berg-Ultra-26-05-2024",
        "city": "Overberg",
        "lat": 52.0390484,
        "lng": 5.4964645
    },
    {
        "name": "WoldjerspoorZoeker",
        "country": "Netherlands",
        "distance": "50km",
        "date": "23.02.2025",
        "url": "https://ultragrunnen.nl/woldjerspoorzoeker/",
        "city": "Delfzijl",
        "lat": 53.3325644,
        "lng": 6.9135144
    },
    {
        "name": "13th Dutch Coast Ultra Run by Night 50km",
        "country": "Netherlands",
        "distance": "50km",
        "date": "07.02.2025",
        "url": "https://www.facebook.com/groups/140119496133094",
        "city": "Den Helder",
        "lat": 52.9529894,
        "lng": 4.8267592
    },
    {
        "name": "13th Dutch Coast Ultra Run by Night 75km",
        "country": "Netherlands",
        "distance": "75km",
        "date": "07.02.2025",
        "url": "https://www.facebook.com/groups/140119496133094",
        "city": "Den Helder",
        "lat": 52.9529894,
        "lng": 4.8267592
    },
    {
        "name": "6th Drielandenpunt Winter Trail",
        "country": "Netherlands",
        "distance": "50km",
        "date": "02.02.2025",
        "url": "https://www.passionforsports.eu/nl-drielandenpunttrailwinter?count=1",
        "city": "Vaals",
        "lat": 50.7781016,
        "lng": 5.9810696
    },
    {
        "name": "Leenderbos Ultra Trail",
        "country": "Netherlands",
        "distance": "50km",
        "date": "26.01.2025",
        "url": "https://www.trail-events.eu/EVENT-Leenderbos-Ultra-26-01-2025",
        "city": "Leende",
        "lat": 51.3484037,
        "lng": 5.5518897
    },
    {
        "name": "Pierewaai Trail Winter Ed. 50km",
        "country": "Netherlands",
        "distance": "50km",
        "date": "25.01.2025",
        "url": "https://www.pierewaaitrail.nl",
        "city": "Hoek van Holland",
        "lat": 51.9771615,
        "lng": 4.1314526
    },
    {
        "name": "West Coast Challenge - Halfway",
        "country": "Netherlands",
        "distance": "62km",
        "date": "18.01.2025",
        "url": "https://www.westcoastchallenge.nl/",
        "city": "Hoek van Holland",
        "lat": 51.9771615,
        "lng": 4.1314526
    },
    {
        "name": "Cauberg Trail - winter edition",
        "country": "Netherlands",
        "distance": "54km",
        "date": "04.01.2025",
        "url": "https://www.caubergtrail.nl/",
        "city": "Valkenburg",
        "lat": 50.8647531,
        "lng": 5.8312518
    },
    {
        "name": "Hollands Duin Ultra",
        "country": "Netherlands",
        "distance": "50km",
        "date": "19.12.2026",
        "url": "http://www.trail-events.eu/EVENT-Hollands-Duin-Ultra-19-12-2026",
        "city": "Noordwijk",
        "lat": 52.2410856,
        "lng": 4.4461969
    },
    {
        "name": "UHUT100 Winter - Doorn",
        "country": "Netherlands",
        "distance": "50km",
        "date": "29.11.2026",
        "url": "http://www.trail-events.eu/EVENT-Utrechtse-Heuvelrug-Ultra-Trail-Winter-UHUT100-28-11-2026",
        "city": "Leersum",
        "lat": 52.0102642,
        "lng": 5.4332757
    },
    {
        "name": "UHUT100 Winter - Rhenen",
        "country": "Netherlands",
        "distance": "50km",
        "date": "28.11.2026",
        "url": "http://www.trail-events.eu/EVENT-Utrechtse-Heuvelrug-Ultra-Trail-Winter-UHUT100-28-11-2026",
        "city": "Leersum",
        "lat": 52.0102642,
        "lng": 5.4332757
    },
    {
        "name": "Lage Vuursche Ultra",
        "country": "Netherlands",
        "distance": "50km",
        "date": "31.10.2026",
        "url": "http://www.trail-events.eu/EVENT-Lage-Vuursche-Ultra-31-10-2026",
        "city": "Baarn",
        "lat": 52.2111182,
        "lng": 5.2931841
    },
    {
        "name": "Dutch Backyard Ultra Zeewolde",
        "country": "Netherlands",
        "distance": "36h",
        "date": "17.10.2026",
        "url": "http://www.trail-events.eu/EVENT-Dutch-Backyard-Ultra-10-2026#/",
        "city": "Zeewolde",
        "lat": 52.331111,
        "lng": 5.5430312
    },
    {
        "name": "10. Indian Summer Ultra 50 km",
        "country": "Netherlands",
        "distance": "50km",
        "date": "10.10.2026",
        "url": "http://indiansummerultra.nl",
        "city": "Gasselte",
        "lat": 52.971916,
        "lng": 6.7921853
    },
    {
        "name": "10. Indian Summer Ultra 75 km",
        "country": "Netherlands",
        "distance": "75km",
        "date": "10.10.2026",
        "url": "http://indiansummerultra.nl",
        "city": "Gasselte",
        "lat": 52.971916,
        "lng": 6.7921853
    },
    {
        "name": "10. Indian Summer Ultra 100 km",
        "country": "Netherlands",
        "distance": "100km",
        "date": "10.10.2026",
        "url": "http://indiansummerultra.nl",
        "city": "Gasselte",
        "lat": 52.971916,
        "lng": 6.7921853
    },
    {
        "name": "Gelderse Poort Ultra",
        "country": "Netherlands",
        "distance": "50km",
        "date": "26.09.2026",
        "url": "http://www.trail-events.eu/EVENT-Gelderse-Poort-Ultra-26-09-2026",
        "city": "Berg en Dal",
        "lat": 51.8113566,
        "lng": 5.9170257
    },
    {
        "name": "50. RUN Winschoten 100 km",
        "country": "Netherlands",
        "distance": "100km",
        "date": "12.09.2026",
        "url": "http://www.runwinschoten.nl",
        "city": "Winschoten",
        "lat": 53.143001,
        "lng": 7.0380717
    },
    {
        "name": "50. RUN Winschoten 50 km",
        "country": "Netherlands",
        "distance": "50km",
        "date": "12.09.2026",
        "url": "http://www.runwinschoten.nl",
        "city": "Winschoten",
        "lat": 53.143001,
        "lng": 7.0380717
    },
    {
        "name": "Austerlitz Ultra",
        "country": "Netherlands",
        "distance": "50km",
        "date": "30.08.2026",
        "url": "http://www.trail-events.eu/EVENT-Austerlitz-Ultra-30-08-2026",
        "city": "Zeist",
        "lat": 52.0892832,
        "lng": 5.2276307
    },
    {
        "name": "VUT100 (Veluwse Ultra Trail) - 50km noord",
        "country": "Netherlands",
        "distance": "50km",
        "date": "25.07.2026",
        "url": "http://www.trail-events.eu/EVENT-Veluwse-Ultra-Trail-VUT100-25-07-2026#/?lang=nl",
        "city": "Elspeet",
        "lat": 52.2910649,
        "lng": 5.7884632
    },
    {
        "name": "VUT100 (Veluwse Ultra Trail) - 75km",
        "country": "Netherlands",
        "distance": "75km",
        "date": "25.07.2026",
        "url": "http://www.trail-events.eu/EVENT-Veluwse-Ultra-Trail-VUT100-25-07-2026#/?lang=nl",
        "city": "Elspeet",
        "lat": 52.2910649,
        "lng": 5.7884632
    },
    {
        "name": "VUT100 (Veluwse Ultra Trail) - 100km",
        "country": "Netherlands",
        "distance": "100km",
        "date": "25.07.2026",
        "url": "http://www.trail-events.eu/EVENT-Veluwse-Ultra-Trail-VUT100-25-07-2026#/?lang=nl",
        "city": "Elspeet",
        "lat": 52.2910649,
        "lng": 5.7884632
    },
    {
        "name": "Westerwolde Ultra",
        "country": "Netherlands",
        "distance": "100km",
        "date": "28.06.2026",
        "url": "https://ultragrunnen.nl/westerwolde-ultra/",
        "city": "Wedde",
        "lat": 53.0690643,
        "lng": 7.0762777
    },
    {
        "name": "BUT100 (Brabants UltraTrail) - 50 km Zuid",
        "country": "Netherlands",
        "distance": "50km",
        "date": "28.06.2026",
        "url": "http://www.trail-events.eu/EVENT-Brabantse-Ultra-Trail-BUT100-27-06-2026#/?lang=nl",
        "city": "Leende",
        "lat": 51.3484037,
        "lng": 5.5518897
    },
    {
        "name": "BUT100 (Brabants UltraTrail) - 50 km Noord",
        "country": "Netherlands",
        "distance": "50km",
        "date": "27.06.2026",
        "url": "http://www.trail-events.eu/EVENT-Brabantse-Ultra-Trail-BUT100-27-06-2026#/?lang=nl",
        "city": "Leende",
        "lat": 51.3484037,
        "lng": 5.5518897
    },
    {
        "name": "BUT100 (Brabants UltraTrail) - 75 km",
        "country": "Netherlands",
        "distance": "75km",
        "date": "27.06.2026",
        "url": "http://www.trail-events.eu/EVENT-Brabantse-Ultra-Trail-BUT100-27-06-2026#/?lang=nl",
        "city": "Leende",
        "lat": 51.3484037,
        "lng": 5.5518897
    },
    {
        "name": "BUT100 (Brabants UltraTrail) - 100 km",
        "country": "Netherlands",
        "distance": "100km",
        "date": "27.06.2026",
        "url": "http://www.trail-events.eu/EVENT-Brabantse-Ultra-Trail-BUT100-27-06-2026#/?lang=nl",
        "city": "Leende",
        "lat": 51.3484037,
        "lng": 5.5518897
    },
    {
        "name": "25 Zes uur van de Haarlemmermeer",
        "country": "Netherlands",
        "distance": "6h",
        "date": "27.06.2026",
        "url": "https://avhaarlemmermeer.nl/6uur/",
        "city": "Hoofddorp",
        "lat": 52.305554,
        "lng": 4.6926644
    },
    {
        "name": "Vechtdal Trail",
        "country": "Netherlands",
        "distance": "60km",
        "date": "20.06.2026",
        "url": "https://vechtdaltrail.nl",
        "city": "Ommen",
        "lat": 52.510347,
        "lng": 6.4524247
    },
    {
        "name": "5. Pierewaai Summer Beach Trail",
        "country": "Netherlands",
        "distance": "60km",
        "date": "20.06.2026",
        "url": "https://pierewaaitrail.nl/",
        "city": "IJmuiden",
        "lat": 52.4574236,
        "lng": 4.6111981
    },
    {
        "name": "4. Rondom Stad",
        "country": "Netherlands",
        "distance": "64km",
        "date": "13.06.2026",
        "url": "https://runningrunn.nl/rondomstad/2026/informatie.php",
        "city": "Sint Annen",
        "lat": 53.2979462,
        "lng": 6.6652567
    },