[
    {
        "name": "Bostrails Aalter",
        "country": "Belgium",
        "distance": "47km",
        "date": "20/01/2024",
        "url": "https://statistik.d-u-v.org/eventdetail.php?event=96753",
        "city": "Aalter",
        "terrain": "trail",
        "lat": 51.083894,
        "lng": 3.4485192,
        "slug": "bostrails-aalter-2024"
    },
    {
        "name": "Houffatrail 65km",
        "country": "Belgium",
        "distance": "65km",
        "date": "21/01/2024",
        "url": "https://statistik.d-u-v.org/eventdetail.php?event=104631",
        "city": "Houffalize",
        "elevation": "1700m",
        "terrain": "trail",
        "lat": 50.1323761,
        "lng": 5.7886928,
        "slug": "houffatrail-65km-2024"
    },
    {
        "name": "Houffatrail 50km",
        "country": "Belgium",
        "distance": "50km",
        "date": "21/01/2024",
        "url": "https://statistik.d-u-v.org/eventdetail.php?event=95014",
        "city": "Houffalize",
        "elevation": "1830m",
        "terrain": "trail",
        "lat": 50.1323761,
        "lng": 5.7886928,
        "slug": "houffatrail-50km-2024"
    },
    {
        "name": "Trailmarathon Het Leen",
        "country": "Belgium",
        "distance": "45km",
        "date": "10/02/2024",
        "url": "https://statistik.d-u-v.org/eventdetail.php?event=107774",
        "city": "Eeklo",
        "terrain": "trail",
        "lat": 51.1844827,
        "lng": 3.5665965,
        "slug": "trailmarathon-het-leen-2024"
    },
    {
        "name": "Muziekbos Trail - 45 km",
        "country": "Belgium",
        "distance": "45km",
        "date": "11/02/2024",
        "url": "https://statistik.d-u-v.org/eventdetail.php?event=105148",
        "city": "Ronse",
        "elevation": "1050m",
        "terrain": "trail",
        "lat": 50.7475502,
        "lng": 3.6020879,
        "slug": "muziekbos-trail-45-km-2024"
    },
    {
        "name": "Muziekbos Trail - 64 km",
        "country": "Belgium",
        "distance": "64km",
        "date": "11/02/2024",
        "url": "https://statistik.d-u-v.org/eventdetail.php?event=104487",
        "city": "Ronse",
        "elevation": "1400m",
        "terrain": "trail",
        "lat": 50.7475502,
        "lng": 3.6020879,
        "slug": "muziekbos-trail-64-km-2024"
    },
    {
        "name": "Mad Elf Run",
        "country": "Belgium",
        "distance": "49km",
        "date": "17/02/2024",
        "url": "https://statistik.d-u-v.org/eventdetail.php?event=105261",
        "city": "Aywaille",
        "elevation": "1400m",
        "terrain": "trail",
        "lat": 50.4758998,
        "lng": 5.6763249,
        "slug": "mad-elf-run-2024"
    },
    {
        "name": "Trail de la Siberie - 100km",
        "country": "Belgium",
        "distance": "101km",
        "date": "24/02/2024",
        "url": "https://statistik.d-u-v.org/eventdetail.php?event=105267",
        "city": "Profondeville",
        "elevation": "3000m",
        "terrain": "trail",
        "lat": 50.3762043,
        "lng": 4.8675024,
        "slug": "trail-de-la-siberie-100km-2024"
    },
    {
        "name": "Trail de la Siberie - 75km",
        "country": "Belgium",
        "distance": "76km",
        "date": "24/02/2024",
        "url": "https://statistik.d-u-v.org/eventdetail.php?event=105266",
        "city": "Profondeville",
        "elevation": "2300m",
        "terrain": "trail",
        "lat": 50.3762043,
        "lng": 4.8675024,
        "slug": "trail-de-la-siberie-75km-2024"
    },
    {
        "name": "Trail de la Siberie - 50km",
        "country": "Belgium",
        "distance": "52km",
        "date": "24/02/2024",
        "url": "https://statistik.d-u-v.org/eventdetail.php?event=105265",
        "city": "Profondeville",
        "elevation": "1600m",
        "terrain": "trail",
        "lat": 50.3762043,
        "lng": 4.8675024,
        "slug": "trail-de-la-siberie-50km-2024"
    },
    {
        "name": "LaThareé Trail  55 km",
        "country": "Belgium",
        "distance": "55km",
        "date": "16/03/2024",
        "url": "https://statistik.d-u-v.org/eventdetail.php?event=106026",
        "city": "Rettigny",
        "elevation": "2450m",
        "terrain": "trail",
        "lat": 50.1678509,
        "lng": 5.8801729,
        "slug": "lathare-trail-55-km-2024"
    },
    {
        "name": "LaThareé Trail  48 km",
        "country": "Belgium",
        "distance": "48km",
        "date": "16/03/2024",
        "url": "https://statistik.d-u-v.org/eventdetail.php?event=106025",
        "city": "Rettigny",
        "elevation": "2000m",
        "terrain": "trail",
        "lat": 50.1678509,
        "lng": 5.8801729,
        "slug": "lathare-trail-48-km-2024"
    },
    {
        "name": "Endurance Day Hamme 50 mi",
        "country": "Belgium",
        "distance": "50mi",
        "date": "17/03/2024",
        "url": "https://statistik.d-u-v.org/eventdetail.php?event=105844",
        "city": "Hamme",
        "elevation": "2022m",
        "terrain": "road",
        "lat": 51.0977642,
        "lng": 4.1377229,
        "slug": "endurance-day-hamme-50-mi-2024"
    },
    {
        "name": "Endurance Day Hamme 100 km",
        "country": "Belgium",
        "distance": "100km",
        "date": "17/03/2024",
        "url": "https://statistik.d-u-v.org/eventdetail.php?event=105843",
        "city": "Hamme",
        "elevation": "2022m",
        "terrain": "road",
        "lat": 51.0977642,
        "lng": 4.1377229,
        "slug": "endurance-day-hamme-100-km-2024"
    },
    {
        "name": "Endurance Day Hamme 50 km",
        "country": "Belgium",
        "distance": "50km",
        "date": "17/03/2024",
        "url": "https://statistik.d-u-v.org/eventdetail.php?event=105842",
        "city": "Hamme",
        "elevation": "52m",
        "terrain": "road",
        "lat": 51.0977642,
        "lng": 4.1377229,
        "slug": "endurance-day-hamme-50-km-2024"
    },
    {
        "name": "Trail des Cisterciens",
        "country": "Belgium",
        "distance": "67km",
        "date": "07/04/2024",
        "url": "https://statistik.d-u-v.org/eventdetail.php?event=106813",
        "city": "Court-St-Etienne",
        "elevation": "1500m",
        "terrain": "trail",
        "lat": 50.6443208,
        "lng": 4.5685766,
        "slug": "trail-des-cisterciens-2024"
    },
    {
        "name": "TDI (Trail des Idylles)",
        "country": "Belgium",
        "distance": "52.4km",
        "date": "13/04/2024",
        "url": "https://statistik.d-u-v.org/eventdetail.php?event=106814",
        "city": "Malmedy / Chodes",
        "elevation": "2300m",
        "terrain": "trail",
        "slug": "tdi-trail-des-idylles-2024"
    },
    {
        "name": "Legends Backyard Ultra",
        "country": "Belgium",
        "distance": "53h",
        "date": "20/04/2024",
        "url": "https://statistik.d-u-v.org/eventdetail.php?event=107104",
        "city": "Kasterlee",
        "elevation": "35m",
        "terrain": "road",
        "lat": 51.2407915,
        "lng": 4.967812,
        "slug": "legends-backyard-ultra-2024"
    },
    {
        "name": "L.A.T Legends Ardennes Trail 60km",
        "country": "Belgium",
        "distance": "62km",
        "date": "27/04/2024",
        "url": "https://statistik.d-u-v.org/eventdetail.php?event=107577",
        "city": "Lamormenil",
        "elevation": "1800m",
        "terrain": "trail",
        "lat": 50.2542118,
        "lng": 5.6378252,
        "slug": "l-a-t-legends-ardennes-trail-60km-2024"
    },
    {
        "name": "L.A.T Legends Ardennes Trail 100km",
        "country": "Belgium",
        "distance": "107km",
        "date": "27/04/2024",
        "url": "https://statistik.d-u-v.org/eventdetail.php?event=107576",
        "city": "Nisramont",
        "elevation": "3200m",
        "terrain": "trail",
        "lat": 50.1353549,
        "lng": 5.6471185,
        "slug": "l-a-t-legends-ardennes-trail-100km-2024"
    },
    {
        "name": "Until the End - Backyard Ultra",
        "country": "Belgium",
        "distance": "32h",
        "date": "04/05/2024",
        "url": "https://statistik.d-u-v.org/eventdetail.php?event=107756",
        "city": "Spa",
        "elevation": "190m",
        "lat": 50.4920654,
        "lng": 5.8627569,
        "slug": "until-the-end-backyard-ultra-2024"
    },
    {
        "name": "Trail de Chimay",
        "country": "Belgium",
        "distance": "50km",
        "date": "11/05/2024",
        "url": "https://statistik.d-u-v.org/eventdetail.php?event=102040",
        "city": "Bourlers",
        "elevation": "1590m",
        "terrain": "trail",
        "lat": 50.027359,
        "lng": 4.341293,
        "slug": "trail-de-chimay-2024"
    },
    {
        "name": "Bastogne - Wiltz - Bastogne",
        "country": "Belgium",
        "distance": "72km",
        "date": "29/12/2024",
        "url": "https://statistik.d-u-v.org/eventdetail.php?event=114391",
        "city": "Bastogne",
        "elevation": "13m",
        "lat": 50.0023102,
        "lng": 5.7173386,
        "slug": "bastogne-wiltz-bastogne-2024"
    },
    {
        "name": "The Bello Gallico Trail 50mi",
        "country": "Belgium",
        "distance": "50mi",
        "date": "15/12/2024",
        "url": "https://statistik.d-u-v.org/eventdetail.php?event=113825",
        "city": "Oud-Heverlee",
        "elevation": "1200m",
        "terrain": "trail",
        "lat": 50.8376275,
        "lng": 4.6629253,
        "elevation_points": [
            {
                "d": 0,
                "e": 100
            },
            {
                "d": 10,
                "e": 200
            },
            {
                "d": 20,
                "e": 150
            },
            {
                "d": 30,
                "e": 300
            },
            {
                "d": 40,
                "e": 250
            },
            {
                "d": 50,
                "e": 400
            },
            {
                "d": 60,
                "e": 100
            },
            {
                "d": 70,
                "e": 50
            },
            {
                "d": 80,
                "e": 100
            }
        ],
        "aid_stations": [
            15,
            30,
            45,
            60,
            75
        ],
        "slug": "the-bello-gallico-trail-50mi-2024"
    },
    {
        "name": "The Bello Gallico Trail 100mi",
        "country": "Belgium",
        "distance": "100mi",
        "date": "14/12/2024",
        "url": "https://statistik.d-u-v.org/eventdetail.php?event=113826",
        "city": "Oud-Heverlee",
        "elevation": "36m",
        "terrain": "trail",
        "lat": 50.8376275,
        "lng": 4.6629253,
        "elevation_points": [
            {
                "d": 0,
                "e": 100
            },
            {
                "d": 10,
                "e": 200
            },
            {
                "d": 20,
                "e": 150
            },
            {
                "d": 30,
                "e": 300
            },
            {
                "d": 40,
                "e": 250
            },
            {
                "d": 50,
                "e": 400
            },
            {
                "d": 60,
                "e": 100
            },
            {
                "d": 70,
                "e": 50
            },
            {
                "d": 80,
                "e": 100
            }
        ],
        "aid_stations": [
            15,
            30,
            45,
            60,
            75
        ],
        "slug": "the-bello-gallico-trail-100mi-2024"
    },
    {
        "name": "De Warmste Loop - The Warmest Run",
        "country": "Belgium",
        "distance": "8h",
        "date": "30/11/2024",
        "url": "https://statistik.d-u-v.org/eventdetail.php?event=111821",
        "city": "Wingene",
        "terrain": "road",
        "lat": 51.0601502,
        "lng": 3.3070748,
        "slug": "de-warmste-loop-the-warmest-run-2024"
    },
    {
        "name": "Olne-Spa-Olne",
        "country": "Belgium",
        "distance": "71km",
        "date": "24/11/2024",
        "url": "https://statistik.d-u-v.org/eventdetail.php?event=102537",
        "city": "Olne",
        "elevation": "2296m",
        "terrain": "trail",
        "lat": 50.5901199,
        "lng": 5.7479948,
        "slug": "olne-spa-olne-2024"
    },
    {
        "name": "6 hour Winter Challenge of Hamme",
        "country": "Belgium",
        "distance": "6h",
        "date": "23/11/2024",
        "url": "https://statistik.d-u-v.org/eventdetail.php?event=111138",
        "city": "Hamme",
        "terrain": "road",
        "lat": 51.0977642,
        "lng": 4.1377229,
        "slug": "6-hour-winter-challenge-of-hamme-2024"
    },
    {
        "name": "De Wase (Halve en Ultra) Marathon",
        "country": "Belgium",
        "distance": "63km",
        "date": "17/11/2024",
        "url": "https://statistik.d-u-v.org/eventdetail.php?event=112869",
        "city": "Sinaai",
        "elevation": "9112m",
        "terrain": "trail",
        "lat": 51.15689,
        "lng": 4.04172,
        "slug": "de-wase-halve-en-ultra-marathon-2024"
    },
    {
        "name": "Grand Trail des Lacs et Châteaux Winter",
        "country": "Belgium",
        "distance": "66km",
        "date": "09/11/2024",
        "url": "https://statistik.d-u-v.org/eventdetail.php?event=112563",
        "city": "Ovifat",
        "elevation": "2600m",
        "terrain": "trail",
        "lat": 50.4663622,
        "lng": 6.107063,
        "slug": "grand-trail-des-lacs-et-ch-teaux-winter-2024"
    },
    {
        "name": "Bear Trail 83 Km",
        "country": "Belgium",
        "distance": "83km",
        "date": "26/10/2024",
        "url": "https://statistik.d-u-v.org/eventdetail.php?event=111947",
        "city": "Voeren",
        "elevation": "2000m",
        "terrain": "trail",
        "lat": 50.746555,
        "lng": 5.839016,
        "slug": "bear-trail-83-km-2024"
    },
    {
        "name": "Bear Trail 58 Km",
        "country": "Belgium",
        "distance": "58km",
        "date": "26/10/2024",
        "url": "https://statistik.d-u-v.org/eventdetail.php?event=112245",
        "city": "Voeren",
        "elevation": "1600m",
        "terrain": "trail",
        "lat": 50.746555,
        "lng": 5.839016,
        "slug": "bear-trail-58-km-2024"
    },
    {
        "name": "Grizzly100",
        "country": "Belgium",
        "distance": "100km",
        "date": "26/10/2024",
        "url": "https://statistik.d-u-v.org/eventdetail.php?event=102106",
        "city": "s'Gravenvoeren",
        "lat": 50.7588019,
        "lng": 5.7619737,
        "slug": "grizzly100-2024"
    },
    {
        "name": "Trail de L'Abbaye",
        "country": "Belgium",
        "distance": "50km",
        "date": "05/10/2024",
        "url": "https://statistik.d-u-v.org/eventdetail.php?event=111548",
        "city": "Villers-la-Ville",
        "terrain": "trail",
        "lat": 50.5727285,
        "lng": 4.5342675,
        "slug": "trail-de-l-abbaye-2024"
    },
    {
        "name": "Clash Der Titanen 110",
        "country": "Belgium",
        "distance": "115km",
        "date": "05/10/2024",
        "url": "https://statistik.d-u-v.org/eventdetail.php?event=111298",
        "city": "Wezemaal",
        "elevation": "1872m",
        "terrain": "trail",
        "lat": 50.9482598,
        "lng": 4.7544622,
        "slug": "clash-der-titanen-110-2024"
    },
    {
        "name": "Clash Der Titanen 60",
        "country": "Belgium",
        "distance": "61km",
        "date": "05/10/2024",
        "url": "https://statistik.d-u-v.org/eventdetail.php?event=111299",
        "city": "Wezemaal",
        "elevation": "1105m",
        "terrain": "trail",
        "lat": 50.9482598,
        "lng": 4.7544622,
        "slug": "clash-der-titanen-60-2024"
    },
    {
        "name": "Clash Der Titanen 160",
        "country": "Belgium",
        "distance": "162km",
        "date": "05/10/2024",
        "url": "https://statistik.d-u-v.org/eventdetail.php?event=111300",
        "city": "Wezemaal",
        "elevation": "2500m",
        "terrain": "trail",
        "lat": 50.9482598,
        "lng": 4.7544622,
        "slug": "clash-der-titanen-160-2024"
    },
    {
        "name": "L'Ultra by HuyForTrail",
        "country": "Belgium",
        "distance": "67km",
        "date": "22/09/2024",
        "url": "https://statistik.d-u-v.org/eventdetail.php?event=110857",
        "city": "Bas-Oha",
        "elevation": "1720m",
        "terrain": "trail",
        "lat": 50.5241866,
        "lng": 5.1767579,
        "slug": "l-ultra-by-huyfortrail-2024"
    },
    {
        "name": "Trail des Fées",
        "country": "Belgium",
        "distance": "55km",
        "date": "21/09/2024",
        "url": "https://statistik.d-u-v.org/eventdetail.php?event=110854",
        "city": "Bertrix",
        "elevation": "2100m",
        "terrain": "trail",
        "lat": 49.8546564,
        "lng": 5.2529266,
        "slug": "trail-des-f-es-2024"
    },
    {
        "name": "Kjir ne ki were 12u",
        "country": "Belgium",
        "distance": "12h",
        "date": "07/09/2024",
        "url": "https://statistik.d-u-v.org/eventdetail.php?event=110462",
        "city": "Dentergem",
        "elevation": "19m",
        "terrain": "trail",
        "lat": 50.9642783,
        "lng": 3.4191602,
        "slug": "kjir-ne-ki-were-12u-2024"
    },
    {
        "name": "60 km van Schoten",
        "country": "Belgium",
        "distance": "60km",
        "date": "25/08/2024",
        "url": "https://statistik.d-u-v.org/eventdetail.php?event=129159",
        "city": "Schoten",
        "elevation": "25m",
        "terrain": "road",
        "lat": 51.2516344,
        "lng": 4.4980446,
        "slug": "60-km-van-schoten-2024"
    },
    {
        "name": "Trail des Fantomes 68km",
        "country": "Belgium",
        "distance": "68km",
        "date": "10/08/2024",
        "url": "https://statistik.d-u-v.org/eventdetail.php?event=102050",
        "city": "La Roche-en-Ardenne",
        "elevation": "2500m",
        "terrain": "trail",
        "lat": 50.1602833,
        "lng": 5.5627594,
        "slug": "trail-des-fantomes-68km-2024"
    },
    {
        "name": "Trail des Fantomes 48km",
        "country": "Belgium",
        "distance": "48km",
        "date": "10/08/2024",
        "url": "https://statistik.d-u-v.org/eventdetail.php?event=109804",
        "city": "La Roche-en-Ardenne",
        "elevation": "2266m",
        "terrain": "trail",
        "lat": 50.1602833,
        "lng": 5.5627594,
        "slug": "trail-des-fantomes-48km-2024"
    },
    {
        "name": "6 uur van Aalter",
        "country": "Belgium",
        "distance": "6h",
        "date": "14/07/2024",
        "url": "https://statistik.d-u-v.org/eventdetail.php?event=109315",
        "city": "Aalter",
        "elevation": "1000m",
        "terrain": "road",
        "lat": 51.083894,
        "lng": 3.4485192,
        "slug": "6-uur-van-aalter-2024"
    },
    {
        "name": "Festival Trail Semois",
        "country": "Belgium",
        "distance": "70km",
        "date": "06/07/2024",
        "url": "https://statistik.d-u-v.org/eventdetail.php?event=99381",
        "city": "Herbeumont",
        "elevation": "2500m",
        "terrain": "trail",
        "lat": 49.7815364,
        "lng": 5.2377736,
        "slug": "festival-trail-semois-2024"
    },
    {
        "name": "La Chouffe Trail 51km",
        "country": "Belgium",
        "distance": "51km",
        "date": "06/07/2024",
        "url": "https://statistik.d-u-v.org/eventdetail.php?event=102048",
        "city": "Houffalize",
        "elevation": "1280m",
        "terrain": "trail",
        "lat": 50.1323761,
        "lng": 5.7886928,
        "slug": "la-chouffe-trail-51km-2024"
    },
    {
        "name": "La Chouffe Trail 70km",
        "country": "Belgium",
        "distance": "70km",
        "date": "06/07/2024",
        "url": "https://statistik.d-u-v.org/eventdetail.php?event=102049",
        "city": "Houffalize",
        "lat": 50.1323761,
        "lng": 5.7886928,
        "slug": "la-chouffe-trail-70km-2024"
    },
    {
        "name": "Mini Medium and MegaTornado",
        "country": "Belgium",
        "distance": "100km",
        "date": "30/06/2024",
        "url": "https://statistik.d-u-v.org/eventdetail.php?event=103968",
        "city": "Silly",
        "terrain": "road",
        "lat": 50.6428391,
        "lng": 3.9423486,
        "slug": "mini-medium-and-megatornado-2024"
    },
    {
        "name": "Another One Bites the Dust",
        "country": "Belgium",
        "distance": "32h",
        "date": "28/06/2024",
        "url": "https://statistik.d-u-v.org/eventdetail.php?event=110652",
        "city": "Bierbeek",
        "terrain": "trail",
        "lat": 50.8319724,
        "lng": 4.7747499,
        "slug": "another-one-bites-the-dust-2024"
    },
    {
        "name": "Antwerp Backyard Ultra",
        "country": "Belgium",
        "distance": "46h",
        "date": "28/06/2024",
        "url": "https://statistik.d-u-v.org/eventdetail.php?event=103244",
        "city": "Schelle",
        "elevation": "21m",
        "terrain": "road",
        "lat": 51.1245635,
        "lng": 4.3361875,
        "slug": "antwerp-backyard-ultra-2024"
    },
    {
        "name": "Haute Ardenne Ultra Trail",
        "country": "Belgium",
        "distance": "50km",
        "date": "22/06/2024",
        "url": "https://statistik.d-u-v.org/eventdetail.php?event=110789",
        "city": "Trois-Ponts",
        "elevation": "2000m",
        "terrain": "trail",
        "lat": 50.3726812,
        "lng": 5.8702957,
        "slug": "haute-ardenne-ultra-trail-2024"
    },
    {
        "name": "Trail Godefroy Bouillon",
        "country": "Belgium",
        "distance": "104km",
        "date": "15/06/2024",
        "url": "https://statistik.d-u-v.org/eventdetail.php?event=108341",
        "city": "Bouillon",
        "elevation": "3200m",
        "terrain": "trail",
        "lat": 49.7949836,
        "lng": 5.0672528,
        "slug": "trail-godefroy-bouillon-2024"
    },
    {
        "name": "Trail Godefroy Bouillon",
        "country": "Belgium",
        "distance": "80km",
        "date": "15/06/2024",
        "url": "https://statistik.d-u-v.org/eventdetail.php?event=108342",
        "city": "Bouillon",
        "elevation": "2540m",
        "terrain": "trail",
        "lat": 49.7949836,
        "lng": 5.0672528,
        "slug": "trail-godefroy-bouillon-2024"
    },
    {
        "name": "Trail Godefroy Bouillon",
        "country": "Belgium",
        "distance": "50km",
        "date": "15/06/2024",
        "url": "https://statistik.d-u-v.org/eventdetail.php?event=102044",
        "city": "Bouillon",
        "elevation": "1610m",
        "terrain": "trail",
        "lat": 49.7949836,
        "lng": 5.0672528,
        "slug": "trail-godefroy-bouillon-2024"
    },
    {
        "name": "The Longest Day 50km",
        "country": "Belgium",
        "distance": "50km",
        "date": "08/06/2024",
        "url": "https://statistik.d-u-v.org/eventdetail.php?event=102042",
        "city": "Spa",
        "elevation": "1500m",
        "terrain": "trail",
        "lat": 50.4920654,
        "lng": 5.8627569,
        "slug": "the-longest-day-50km-2024"
    },
    {
        "name": "Ohm Trail - XL",
        "country": "Belgium",
        "distance": "55km",
        "date": "02/06/2024",
        "url": "https://statistik.d-u-v.org/eventdetail.php?event=108348",
        "city": "Aywaille",
        "elevation": "2810m",
        "terrain": "trail",
        "lat": 50.4758998,
        "lng": 5.6763249,
        "slug": "ohm-trail-xl-2024"
    },
    {
        "name": "Ohm Trail - Ultra",
        "country": "Belgium",
        "distance": "80km",
        "date": "02/06/2024",
        "url": "https://statistik.d-u-v.org/eventdetail.php?event=108349",
        "city": "Aywaille",
        "elevation": "3850m",
        "terrain": "trail",
        "lat": 50.4758998,
        "lng": 5.6763249,
        "slug": "ohm-trail-ultra-2024"
    },
    {
        "name": "La Balade du Gendarme",
        "country": "Belgium",
        "distance": "102km",
        "date": "19/05/2024",
        "url": "https://statistik.d-u-v.org/eventdetail.php?event=107810",
        "city": "Landenne",
        "elevation": "2500m",
        "terrain": "trail",
        "lat": 50.5142495,
        "lng": 5.0646275,
        "slug": "la-balade-du-gendarme-2024"
    },
    {
        "name": "Grand Trail des Lacs et Châteaux 85km",
        "country": "Belgium",
        "distance": "85km",
        "date": "19/05/2024",
        "url": "https://statistik.d-u-v.org/eventdetail.php?event=107940",
        "city": "Ovifat",
        "elevation": "3083m",
        "terrain": "trail",
        "lat": 50.4663622,
        "lng": 6.107063,
        "slug": "grand-trail-des-lacs-et-ch-teaux-85km-2024"
    },
    {
        "name": "6 uur Challenge van Hamme",
        "country": "Belgium",
        "distance": "6h",
        "date": "11/05/2024",
        "url": "https://statistik.d-u-v.org/eventdetail.php?event=107558",
        "city": "Hamme",
        "elevation": "1421m",
        "terrain": "road",
        "lat": 51.0977642,
        "lng": 4.1377229,
        "slug": "6-uur-challenge-van-hamme-2024"
    },
    {
        "name": "Bastogne - Wiltz - Bastogne 50km",
        "country": "Belgium",
        "distance": "50km",
        "date": "28/12/2025",
        "url": "https://www.trailrun.be/bastogne-wiltz-bastogne/",
        "city": "Bastogne",
        "lat": 50.0023102,
        "lng": 5.7173386,
        "slug": "bastogne-wiltz-bastogne-50km-2025"
    },
    {
        "name": "Bastogne - Wiltz - Bastogne 70km",
        "country": "Belgium",
        "distance": "70km",
        "date": "22/04/2026",
        "url": "https://www.trailrun.be/bastogne-wiltz-bastogne/",
        "city": "Bastogne",
        "elevation": "3111m",
        "terrain": "trail",
        "utmb_index": true,
        "lat": 50.0023102,
        "lng": 5.7173386,
        "slug": "bastogne-wiltz-bastogne-70km-2026"
    },
    {
        "name": "De Warmste Loop - The Warmest Run",
        "country": "Belgium",
        "distance": "8h",
        "date": "30/11/2025",
        "url": "https://www.dewarmsteloop.be",
        "city": "Wingene",
        "lat": 51.0601502,
        "lng": 3.3070748,
        "slug": "de-warmste-loop-the-warmest-run-2025"
    },
    {
        "name": "Meerdaalwoud Trail",
        "country": "Belgium",
        "distance": "50km",
        "date": "20/12/2025",
        "url": "https://www.trailrun.be/meerdaalwoud-trail/",
        "city": "Bierbeek",
        "elevation": "750m",
        "terrain": "trail",
        "utmb_index": true,
        "lat": 50.8319724,
        "lng": 4.7747499,
        "slug": "meerdaalwoud-trail-2025"
    },
    {
        "name": "Trail du BW - 84km",
        "country": "Belgium",
        "distance": "85KM",
        "date": "06/12/2025",
        "url": "https://www.traildubw.be/",
        "city": "Grez-Doiceau",
        "elevation": "1560m",
        "terrain": "trail",
        "lat": 50.7386182,
        "lng": 4.6962324,
        "slug": "trail-du-bw-84km-2025"
    },
    {
        "name": "Trail de la Soupe",
        "country": "Belgium",
        "distance": "45km",
        "date": "30/11/2025",
        "url": "https://www.trailrun.be/fr/trail-de-la-soupe/#efaq-45km-dimanche-1730m-d",
        "city": "La-Roche-en-Ardenne",
        "lat": 50.1602833,
        "lng": 5.5627594,
        "slug": "trail-de-la-soupe-2025"
    },
    {
        "name": "Trail du BW - 62km",
        "country": "Belgium",
        "distance": "85KM",
        "date": "06/12/2025",
        "url": "https://www.traildubw.be/",
        "city": "Grez-Doiceau",
        "elevation": "1560m",
        "terrain": "trail",
        "lat": 50.7386182,
        "lng": 4.6962324,
        "slug": "trail-du-bw-62km-2025"
    },
    {
        "name": "De Wase (Ultra) Marathon",
        "country": "Belgium",
        "distance": "58 km",
        "date": "26/10/2025",
        "url": "https://www.dewasemarathon.run",
        "city": "Sinaai",
        "lat": 51.15689,
        "lng": 4.04172,
        "slug": "de-wase-ultra-marathon-2025"
    },
    {
        "name": "Grand Trail des Lacs et Châteaux Winter",
        "country": "Belgium",
        "distance": "66km",
        "date": "07/11/2026",
        "url": "https://grandtrail.be/courses/gt65/",
        "city": "Ovifat",
        "terrain": "trail",
        "utmb_index": true,
        "lat": 50.4663622,
        "lng": 6.107063,
        "slug": "grand-trail-des-lacs-et-ch-teaux-winter-2026"
    },
    {
        "name": "Bear Trail 58 Km",
        "country": "Belgium",
        "distance": "100 Km",
        "date": "24/10/2026",
        "url": "https://www.bearsports.nl/bear-trail/",
        "city": "Voeren",
        "elevation": "2827m",
        "terrain": "trail",
        "utmb_index": true,
        "lat": 50.746555,
        "lng": 5.839016,
        "slug": "bear-trail-58-km-2026"
    },
    {
        "name": "Grizzly100",
        "country": "Belgium",
        "distance": "100km",
        "date": "24/10/2026",
        "url": "https://www.bearsports.nl/bear-trail/",
        "city": "s'Gravenvoeren",
        "elevation": "2827m",
        "terrain": "trail",
        "utmb_index": true,
        "lat": 50.7588019,
        "lng": 5.7619737,
        "slug": "grizzly100-2026"
    },
    {
        "name": "Olne-Spa-Olne",
        "country": "Belgium",
        "distance": "71 km",
        "date": "23/11/2025",
        "url": "https://www.courirpourleplaisir.be/olne-spa-olne-2/",
        "city": "Olne",
        "elevation": "2296m",
        "terrain": "trail",
        "utmb_index": true,
        "lat": 50.5901199,
        "lng": 5.7479948,
        "slug": "olne-spa-olne-2025"
    },
    {
        "name": "Ohm Trail - Ultra",
        "country": "Belgium",
        "distance": "80km",
        "date": "01/06/2025",
        "url": "https://statistik.d-u-v.org/eventdetail.php?event=108352",
        "city": "Aywaille",
        "elevation": "4000m",
        "terrain": "trail",
        "lat": 50.4758998,
        "lng": 5.6763249,
        "slug": "ohm-trail-ultra-2025"
    },
    {
        "name": "L.A.T Legends Ardennes Trail 100km",
        "country": "Belgium",
        "distance": "107km",
        "date": "26/04/2025",
        "url": "https://statistik.d-u-v.org/eventdetail.php?event=117132",
        "city": "Nisramont",
        "elevation": "3200m",
        "terrain": "trail",
        "lat": 50.1353549,
        "lng": 5.6471185,
        "slug": "l-a-t-legends-ardennes-trail-100km-2025"
    },
    {
        "name": "Legends Backyard Ultra",
        "country": "Belgium",
        "distance": "116h",
        "date": "26/04/2025",
        "url": "https://statistik.d-u-v.org/eventdetail.php?event=117526",
        "city": "Retie",
        "elevation": "35m",
        "terrain": "road",
        "lat": 51.2675862,
        "lng": 5.0843883,
        "slug": "legends-backyard-ultra-2025"
    },
    {
        "name": "Belgian Front Memorial Trail",
        "country": "Belgium",
        "distance": "103km",
        "date": "03/05/2025",
        "url": "https://statistik.d-u-v.org/eventdetail.php?event=114655",
        "city": "Messines",
        "elevation": "79m",
        "terrain": "trail",
        "lat": 50.759827,
        "lng": 2.8998324,
        "slug": "belgian-front-memorial-trail-2025"
    },
    {
        "name": "Until the End - Backyard Ultra",
        "country": "Belgium",
        "distance": "29h",
        "date": "03/05/2025",
        "url": "https://statistik.d-u-v.org/eventdetail.php?event=121246",
        "city": "Spa",
        "elevation": "190m",
        "lat": 50.4920654,
        "lng": 5.8627569,
        "slug": "until-the-end-backyard-ultra-2025"
    },
    {
        "name": "Trail de Chimay",
        "country": "Belgium",
        "distance": "50km",
        "date": "10/05/2025",
        "url": "https://statistik.d-u-v.org/eventdetail.php?event=119300",
        "city": "Bourlers",
        "elevation": "1590m",
        "terrain": "trail",
        "lat": 50.027359,
        "lng": 4.341293,
        "slug": "trail-de-chimay-2025"
    },
    {
        "name": "Grand Trail des Lacs et Châteaux 85km",
        "country": "Belgium",
        "distance": "85km",
        "date": "17/05/2025",
        "url": "https://statistik.d-u-v.org/eventdetail.php?event=107952",
        "city": "Ovifat",
        "elevation": "3083m",
        "terrain": "trail",
        "utmb_index": true,
        "lat": 50.4663622,
        "lng": 6.107063,
        "slug": "grand-trail-des-lacs-et-ch-teaux-85km-2025"
    },
    {
        "name": "R24u Ultraloop - 6h",
        "country": "Belgium",
        "distance": "6h",
        "date": "24/05/2025",
        "url": "https://statistik.d-u-v.org/eventdetail.php?event=118829",
        "city": "Mechelen",
        "elevation": "800m",
        "terrain": "road",
        "lat": 51.0281381,
        "lng": 4.4803453,
        "slug": "r24u-ultraloop-6h-2025"
    },
    {
        "name": "Canceled: Endurance Day Hamme 100 km (BEL)",
        "country": "Belgium",
        "distance": "100km",
        "date": "01/06/2025",
        "url": "https://statistik.d-u-v.org/eventdetail.php?event=111093",
        "city": "Hamme",
        "elevation": "10m",
        "terrain": "road",
        "lat": 51.0977642,
        "lng": 4.1377229,
        "slug": "canceled-endurance-day-hamme-100-km-bel-2025"
    },
    {
        "name": "Canceled: Endurance Day Hamme 50 km (BEL)",
        "country": "Belgium",
        "distance": "50km",
        "date": "01/06/2025",
        "url": "https://statistik.d-u-v.org/eventdetail.php?event=111086",
        "city": "Hamme",
        "elevation": "12m",
        "terrain": "road",
        "lat": 51.0977642,
        "lng": 4.1377229,
        "slug": "canceled-endurance-day-hamme-50-km-bel-2025"
    },
    {
        "name": "Ohm Trail - XL",
        "country": "Belgium",
        "distance": "55km",
        "date": "01/06/2025",
        "url": "https://statistik.d-u-v.org/eventdetail.php?event=108351",
        "city": "Aywaille",
        "elevation": "2810m",
        "terrain": "trail",
        "lat": 50.4758998,
        "lng": 5.6763249,
        "slug": "ohm-trail-xl-2025"
    },
    {
        "name": "The Longest Day 50km",
        "country": "Belgium",
        "distance": "52km",
        "date": "07/06/2025",
        "url": "https://statistik.d-u-v.org/eventdetail.php?event=121261",
        "city": "Spa",
        "elevation": "1680m",
        "terrain": "trail",
        "lat": 50.4920654,
        "lng": 5.8627569,
        "slug": "the-longest-day-50km-2025"
    },
    {
        "name": "Les Clochards Célestes",
        "country": "Belgium",
        "distance": "101km",
        "date": "08/06/2025",
        "url": "https://statistik.d-u-v.org/eventdetail.php?event=121245",
        "city": "Pepinster",
        "elevation": "3300m",
        "terrain": "trail",
        "lat": 50.5710312,
        "lng": 5.7978592,
        "slug": "les-clochards-c-lestes-2025"
    },
    {
        "name": "Trail Godefroy Bouillon",
        "country": "Belgium",
        "distance": "53km",
        "date": "14/06/2025",
        "url": "https://statistik.d-u-v.org/eventdetail.php?event=121244",
        "city": "Bouillon",
        "elevation": "1960m",
        "terrain": "trail",
        "lat": 49.7949836,
        "lng": 5.0672528,
        "slug": "trail-godefroy-bouillon-2025"
    },
    {
        "name": "Trail Godefroy Bouillon",
        "country": "Belgium",
        "distance": "100km",
        "date": "14/06/2025",
        "url": "https://statistik.d-u-v.org/eventdetail.php?event=121243",
        "city": "Bouillon",
        "lat": 49.7949836,
        "lng": 5.0672528,
        "slug": "trail-godefroy-bouillon-2025"
    },
    {
        "name": "Trail Godefroy Bouillon",
        "country": "Belgium",
        "distance": "75km",
        "date": "14/06/2025",
        "url": "https://statistik.d-u-v.org/eventdetail.php?event=121242",
        "city": "Bouillon",
        "elevation": "2647m",
        "terrain": "trail",
        "lat": 49.7949836,
        "lng": 5.0672528,
        "slug": "trail-godefroy-bouillon-2025"
    },
    {
        "name": "Antwerp Backyard Ultra",
        "country": "Belgium",
        "distance": "32h",
        "date": "27/06/2025",
        "url": "https://statistik.d-u-v.org/eventdetail.php?event=113217",
        "city": "Schelle",
        "elevation": "21m",
        "terrain": "road",
        "lat": 51.1245635,
        "lng": 4.3361875,
        "slug": "antwerp-backyard-ultra-2025"
    },
    {
        "name": "L'assaut du Maquisard",
        "country": "Belgium",
        "distance": "45km",
        "date": "28/06/2025",
        "url": "https://statistik.d-u-v.org/eventdetail.php?event=120301",
        "city": "Thieux",
        "elevation": "1636m",
        "terrain": "trail",
        "slug": "l-assaut-du-maquisard-2025"
    },
    {
        "name": "Canceled: Mini and MegaTornado (BEL)",
        "country": "Belgium",
        "distance": "100km",
        "date": "29/06/2025",
        "url": "https://statistik.d-u-v.org/eventdetail.php?event=108736",
        "city": "Silly",
        "elevation": "1250m",
        "terrain": "road",
        "lat": 50.6428391,
        "lng": 3.9423486,
        "slug": "canceled-mini-and-megatornado-bel-2025"
    },
    {
        "name": "Another One Bites the Dust",
        "country": "Belgium",
        "distance": "32h",
        "date": "04/07/2025",
        "url": "https://statistik.d-u-v.org/eventdetail.php?event=117520",
        "city": "Bierbeek",
        "lat": 50.8319724,
        "lng": 4.7747499,
        "slug": "another-one-bites-the-dust-2025"
    },
    {
        "name": "Festival Trail Semois",
        "country": "Belgium",
        "distance": "49km",
        "date": "05/07/2025",
        "url": "https://statistik.d-u-v.org/eventdetail.php?event=120431",
        "city": "Herbeumont",
        "elevation": "1750m",
        "terrain": "trail",
        "lat": 49.7815364,
        "lng": 5.2377736,
        "slug": "festival-trail-semois-2025"
    },
    {
        "name": "Ultra Tour de Liège",
        "country": "Belgium",
        "distance": "67km",
        "date": "05/07/2025",
        "url": "https://statistik.d-u-v.org/eventdetail.php?event=117861",
        "city": "Lüttich",
        "elevation": "1760m",
        "terrain": "trail",
        "lat": 50.6450944,
        "lng": 5.5736112,
        "slug": "ultra-tour-de-li-ge-2025"
    },
    {
        "name": "Festival Trail Semois",
        "country": "Belgium",
        "distance": "70km",
        "date": "05/07/2025",
        "url": "https://statistik.d-u-v.org/eventdetail.php?event=116809",
        "city": "Herbeumont",
        "elevation": "2500m",
        "terrain": "trail",
        "lat": 49.7815364,
        "lng": 5.2377736,
        "slug": "festival-trail-semois-2025"
    },
    {
        "name": "La Chouffe Trail 80km",
        "country": "Belgium",
        "distance": "80km",
        "date": "05/07/2025",
        "url": "https://statistik.d-u-v.org/eventdetail.php?event=121399",
        "city": "Houffalize",
        "elevation": "1680m",
        "terrain": "trail",
        "lat": 50.1323761,
        "lng": 5.7886928,
        "slug": "la-chouffe-trail-80km-2025"
    },
    {
        "name": "La Chouffe Trail 56km",
        "country": "Belgium",
        "distance": "56km",
        "date": "05/07/2025",
        "url": "https://statistik.d-u-v.org/eventdetail.php?event=121398",
        "city": "Houffalize",
        "elevation": "1280m",
        "terrain": "trail",
        "lat": 50.1323761,
        "lng": 5.7886928,
        "slug": "la-chouffe-trail-56km-2025"
    },
    {
        "name": "GR Provincie Trail Limburg",
        "country": "Belgium",
        "distance": "46.3km",
        "date": "06/07/2025",
        "url": "https://statistik.d-u-v.org/eventdetail.php?event=121423",
        "city": "Teuven",
        "elevation": "11m",
        "terrain": "trail",
        "lat": 50.7514715,
        "lng": 5.8743087,
        "slug": "gr-provincie-trail-limburg-2025"
    },
    {
        "name": "6 uur van Aalter",
        "country": "Belgium",
        "distance": "6h",
        "date": "20/07/2025",
        "url": "https://statistik.d-u-v.org/eventdetail.php?event=116283",
        "city": "Aalter",
        "elevation": "1414m",
        "terrain": "road",
        "lat": 51.083894,
        "lng": 3.4485192,
        "slug": "6-uur-van-aalter-2025"
    },
    {
        "name": "Ultra Trail Haute Ardenne - Jour 1 100 km",
        "country": "Belgium",
        "distance": "100km",
        "date": "02/08/2025",
        "url": "https://statistik.d-u-v.org/eventdetail.php?event=121773",
        "city": "Waimes (Signal de Botrange)",
        "slug": "ultra-trail-haute-ardenne-jour-1-100-km-2025"
    },
    {
        "name": "Ultra Trail Haute Ardenne - Jour 1 70 km",
        "country": "Belgium",
        "distance": "70km",
        "date": "02/08/2025",
        "url": "https://statistik.d-u-v.org/eventdetail.php?event=121772",
        "city": "Signal de Botrange",
        "slug": "ultra-trail-haute-ardenne-jour-1-70-km-2025"
    },
    {
        "name": "Ultra Trail Haute Ardenne - Jour 1 50 km",
        "country": "Belgium",
        "distance": "50km",
        "date": "02/08/2025",
        "url": "https://statistik.d-u-v.org/eventdetail.php?event=121771",
        "city": "Malmedy",
        "lat": 50.4265348,
        "lng": 6.0276059,
        "slug": "ultra-trail-haute-ardenne-jour-1-50-km-2025"
    },
    {
        "name": "L.A.T Legends Ardennes Trail 60km",
        "country": "Belgium",
        "distance": "62km",
        "date": "26/04/2025",
        "url": "https://statistik.d-u-v.org/eventdetail.php?event=117133",
        "city": "Lamormenil",
        "lat": 50.2542118,
        "lng": 5.6378252,
        "slug": "l-a-t-legends-ardennes-trail-60km-2025"
    },
    {
        "name": "Trail des Cisterciens - 65km",
        "country": "Belgium",
        "distance": "65km",
        "date": "20/04/2025",
        "url": "https://statistik.d-u-v.org/eventdetail.php?event=117548",
        "city": "Court-St-Etienne",
        "lat": 50.6443208,
        "lng": 4.5685766,
        "slug": "trail-des-cisterciens-65km-2025"
    },
    {
        "name": "Trail des Cisterciens - 100km",
        "country": "Belgium",
        "distance": "100km",
        "date": "20/04/2025",
        "url": "https://statistik.d-u-v.org/eventdetail.php?event=117549",
        "city": "Court-St-Etienne",
        "lat": 50.6443208,
        "lng": 4.5685766,
        "slug": "trail-des-cisterciens-100km-2025"
    },
    {
        "name": "GR Provincie Trail West-Vlaanderen",
        "country": "Belgium",
        "distance": "50.1km",
        "date": "19/04/2025",
        "url": "https://statistik.d-u-v.org/eventdetail.php?event=121424",
        "city": "Blankenberge",
        "lat": 51.3112589,
        "lng": 3.1323429,
        "slug": "gr-provincie-trail-west-vlaanderen-2025"
    },
    {
        "name": "TDI (Trail des Idylles)",
        "country": "Belgium",
        "distance": "57km",
        "date": "12/04/2025",
        "url": "https://statistik.d-u-v.org/eventdetail.php?event=118348",
        "city": "Malmedy / Chodes",
        "slug": "tdi-trail-des-idylles-2025"
    },
    {
        "name": "GR Provincie Trail Luxemburg",
        "country": "Belgium",
        "distance": "46.3km",
        "date": "23/03/2025",
        "url": "https://statistik.d-u-v.org/eventdetail.php?event=117905",
        "city": "Messancy",
        "lat": 49.5949862,
        "lng": 5.8145736,
        "slug": "gr-provincie-trail-luxemburg-2025"
    },
    {
        "name": "Trail des Sangliers",
        "country": "Belgium",
        "distance": "75km",
        "date": "22/03/2025",
        "url": "https://statistik.d-u-v.org/eventdetail.php?event=119976",
        "city": "La Roche-En-Ardenne",
        "lat": 50.1602833,
        "lng": 5.5627594,
        "slug": "trail-des-sangliers-2025"
    },
    {
        "name": "Dplus draait door - 6h",
        "country": "Belgium",
        "distance": "6h",
        "date": "16/03/2025",
        "url": "https://statistik.d-u-v.org/eventdetail.php?event=124396",
        "city": "Kortenberg",
        "lat": 50.8952922,
        "lng": 4.5656007,
        "slug": "dplus-draait-door-6h-2025"
    },
    {
        "name": "LaThareé Trail  49 km",
        "country": "Belgium",
        "distance": "49km",
        "date": "15/03/2025",
        "url": "https://statistik.d-u-v.org/eventdetail.php?event=119281",
        "city": "Rettigny",
        "lat": 50.1678509,
        "lng": 5.8801729,
        "slug": "lathare-trail-49-km-2025"
    },
    {
        "name": "LaThareé Trail  56 km",
        "country": "Belgium",
        "distance": "56km",
        "date": "15/03/2025",
        "url": "https://statistik.d-u-v.org/eventdetail.php?event=119282",
        "city": "Rettigny",
        "lat": 50.1678509,
        "lng": 5.8801729,
        "slug": "lathare-trail-56-km-2025"
    },
    {
        "name": "Trail de la Siberie - 50km",
        "country": "Belgium",
        "distance": "52km",
        "date": "22/02/2025",
        "url": "https://statistik.d-u-v.org/eventdetail.php?event=116746",
        "city": "Profondeville",
        "lat": 50.3762043,
        "lng": 4.8675024,
        "slug": "trail-de-la-siberie-50km-2025"
    },
    {
        "name": "Trail de la Siberie - 75km",
        "country": "Belgium",
        "distance": "76km",
        "date": "22/02/2025",
        "url": "https://statistik.d-u-v.org/eventdetail.php?event=116747",
        "city": "Profondeville",
        "lat": 50.3762043,
        "lng": 4.8675024,
        "slug": "trail-de-la-siberie-75km-2025"
    },
    {
        "name": "Trail de la Siberie - 100km",
        "country": "Belgium",
        "distance": "101km",
        "date": "22/02/2025",
        "url": "https://statistik.d-u-v.org/eventdetail.php?event=116748",
        "city": "Profondeville",
        "lat": 50.3762043,
        "lng": 4.8675024,
        "slug": "trail-de-la-siberie-100km-2025"
    },
    {
        "name": "Trail de la Siberie - 125km",
        "country": "Belgium",
        "distance": "125km",
        "date": "22/02/2025",
        "url": "https://statistik.d-u-v.org/eventdetail.php?event=116793",
        "city": "Profondeville",
        "lat": 50.3762043,
        "lng": 4.8675024,
        "slug": "trail-de-la-siberie-125km-2025"
    },
    {
        "name": "La Magnetoise",
        "country": "Belgium",
        "distance": "59km",
        "date": "16/02/2025",
        "url": "https://statistik.d-u-v.org/eventdetail.php?event=116485",
        "city": "Magnee",
        "lat": 50.6028765,
        "lng": 5.6811009,
        "slug": "la-magnetoise-2025"
    },
    {
        "name": "Muziekbos Trail - 64 km",
        "country": "Belgium",
        "distance": "64km",
        "date": "09/02/2025",
        "url": "https://statistik.d-u-v.org/eventdetail.php?event=117455",
        "city": "Ronse",
        "lat": 50.7475502,
        "lng": 3.6020879,
        "slug": "muziekbos-trail-64-km-2025"
    },
    {
        "name": "Muziekbos Trail - 45 km",
        "country": "Belgium",
        "distance": "45km",
        "date": "09/02/2025",
        "url": "https://statistik.d-u-v.org/eventdetail.php?event=117456",
        "city": "Ronse",
        "lat": 50.7475502,
        "lng": 3.6020879,
        "slug": "muziekbos-trail-45-km-2025"
    },
    {
        "name": "Trailmarathon Het Leen",
        "country": "Belgium",
        "distance": "45km",
        "date": "02/02/2025",
        "url": "https://statistik.d-u-v.org/eventdetail.php?event=107775",
        "city": "Eeklo",
        "lat": 51.1844827,
        "lng": 3.5665965,
        "slug": "trailmarathon-het-leen-2025"
    },
    {
        "name": "Houffatrail 50km",
        "country": "Belgium",
        "distance": "50km",
        "date": "25/01/2025",
        "url": "https://statistik.d-u-v.org/eventdetail.php?event=116311",
        "city": "Houffalize",
        "lat": 50.1323761,
        "lng": 5.7886928,
        "slug": "houffatrail-50km-2025"
    },
    {
        "name": "Houffatrail 63km",
        "country": "Belgium",
        "distance": "63km",
        "date": "25/01/2025",
        "url": "https://statistik.d-u-v.org/eventdetail.php?event=116312",
        "city": "Houffalize",
        "lat": 50.1323761,
        "lng": 5.7886928,
        "slug": "houffatrail-63km-2025"
    },
    {
        "name": "Ultra Trail Haute Ardenne - Jour 2 - 60 km",
        "country": "Belgium",
        "distance": "60km",
        "date": "03/08/2025",
        "url": "https://statistik.d-u-v.org/eventdetail.php?event=121774",
        "city": "Station de la Baraque de Fraiture",
        "slug": "ultra-trail-haute-ardenne-jour-2-60-km-2025"
    },
    {
        "name": "Trail des Fantomes 73km",
        "country": "Belgium",
        "distance": "73km",
        "date": "09/08/2025",
        "url": "https://statistik.d-u-v.org/eventdetail.php?event=121135",
        "city": "Nisramont",
        "lat": 50.1353549,
        "lng": 5.6471185,
        "slug": "trail-des-fantomes-73km-2025"
    },
    {
        "name": "Trail des Fantomes 55km",
        "country": "Belgium",
        "distance": "55km",
        "date": "09/08/2025",
        "url": "https://statistik.d-u-v.org/eventdetail.php?event=121134",
        "city": "Nisramont",
        "lat": 50.1353549,
        "lng": 5.6471185,
        "slug": "trail-des-fantomes-55km-2025"
    },
    {
        "name": "Transeuropalauf 2025 15. Etappe Zutendaal - Bekkevoort",
        "country": "Belgium",
        "distance": "km58",
        "date": "17/08/2025",
        "url": "https://statistik.d-u-v.org/eventdetail.php?event=120149",
        "city": "Zutendaal",
        "lat": 50.9318992,
        "lng": 5.5725548,
        "slug": "transeuropalauf-2025-15-etappe-zutendaal-bekkevoort-2025"
    },
    {
        "name": "Transeuropalauf 2025 16. Etappe Bekkevoort - Eghezee",
        "country": "Belgium",
        "distance": "50km",
        "date": "18/08/2025",
        "url": "https://statistik.d-u-v.org/eventdetail.php?event=120155",
        "city": "Bekkevoort",
        "lat": 50.9312464,
        "lng": 4.9954667,
        "slug": "transeuropalauf-2025-16-etappe-bekkevoort-eghezee-2025"
    },
    {
        "name": "Transeuropalauf 2025 17. Etappe Eghezee - Givet",
        "country": "Belgium",
        "distance": "72km",
        "date": "19/08/2025",
        "url": "https://statistik.d-u-v.org/eventdetail.php?event=120156",
        "city": "Eghezee",
        "lat": 50.591679,
        "lng": 4.9065999,
        "slug": "transeuropalauf-2025-17-etappe-eghezee-givet-2025"
    },
    {
        "name": "Transeuropalauf 2025 19. Etappe Libramont-Chevigny - Simmern",
        "country": "Belgium",
        "distance": "66km",
        "date": "21/08/2025",
        "url": "https://statistik.d-u-v.org/eventdetail.php?event=120158",
        "city": "Libramont-Chevigny",
        "lat": 49.94991,
        "lng": 5.4370892,
        "slug": "transeuropalauf-2025-19-etappe-libramont-chevigny-simmern-2025"
    },
    {
        "name": "One More Loop",
        "country": "Belgium",
        "distance": "34h",
        "date": "05/09/2025",
        "url": "https://statistik.d-u-v.org/eventdetail.php?event=121255",
        "city": "Geraardsbergen",
        "lat": 50.7715779,
        "lng": 3.8827287,
        "slug": "one-more-loop-2025"
    },
    {
        "name": "Europa Trail Brussels 52km",
        "country": "Belgium",
        "distance": "52km",
        "date": "06/09/2025",
        "url": "https://statistik.d-u-v.org/eventdetail.php?event=121249",
        "city": "Uccle",
        "lat": 50.8035441,
        "lng": 4.3338445,
        "slug": "europa-trail-brussels-52km-2025"
    },
    {
        "name": "Europa Trail Brussels 80km",
        "country": "Belgium",
        "distance": "80km",
        "date": "06/09/2025",
        "url": "https://statistik.d-u-v.org/eventdetail.php?event=121248",
        "city": "Uccle",
        "lat": 50.8035441,
        "lng": 4.3338445,
        "slug": "europa-trail-brussels-80km-2025"
    },
    {
        "name": "Canceled: 6 uur Challenge van Hamme (BEL)",
        "country": "Belgium",
        "distance": "6h",
        "date": "07/09/2025",
        "url": "https://statistik.d-u-v.org/eventdetail.php?event=111087",
        "city": "Hamme",
        "lat": 51.0977642,
        "lng": 4.1377229,
        "slug": "canceled-6-uur-challenge-van-hamme-bel-2025"
    },
    {
        "name": "Trail des Fées",
        "country": "Belgium",
        "distance": "55km",
        "date": "20/09/2025",
        "url": "https://statistik.d-u-v.org/eventdetail.php?event=121593",
        "city": "Bertrix",
        "lat": 49.8546564,
        "lng": 5.2529266,
        "slug": "trail-des-f-es-2025"
    },
    {
        "name": "Bear Trail 83 Km",
        "country": "Belgium",
        "distance": "83km",
        "date": "25/10/2025",
        "url": "https://statistik.d-u-v.org/eventdetail.php?event=121596",
        "city": "Voeren",
        "lat": 50.746555,
        "lng": 5.839016,
        "slug": "bear-trail-83-km-2025"
    },
    {
        "name": "Clash Der Titanen 60",
        "country": "Belgium",
        "distance": "64km",
        "date": "11/10/2025",
        "url": "https://statistik.d-u-v.org/eventdetail.php?event=121582",
        "city": "Wezemaal",
        "lat": 50.9482598,
        "lng": 4.7544622,
        "slug": "clash-der-titanen-60-2025"
    },
    {
        "name": "Clash Der Titanen 120",
        "country": "Belgium",
        "distance": "123km",
        "date": "11/10/2025",
        "url": "https://statistik.d-u-v.org/eventdetail.php?event=121583",
        "city": "Wezemaal",
        "lat": 50.9482598,
        "lng": 4.7544622,
        "slug": "clash-der-titanen-120-2025"
    },
    {
        "name": "Clash Der Titanen 160",
        "country": "Belgium",
        "distance": "165km",
        "date": "11/10/2025",
        "url": "https://statistik.d-u-v.org/eventdetail.php?event=121584",
        "city": "Wezemaal",
        "lat": 50.9482598,
        "lng": 4.7544622,
        "slug": "clash-der-titanen-160-2025"
    },
    {
        "name": "Clash Der Titanen 90",
        "country": "Belgium",
        "distance": "93km",
        "date": "11/10/2025",
        "url": "https://statistik.d-u-v.org/eventdetail.php?event=121585",
        "city": "Wezemaal",
        "lat": 50.9482598,
        "lng": 4.7544622,
        "slug": "clash-der-titanen-90-2025"
    },
    {
        "name": "Clash Der Titanen 200",
        "country": "Belgium",
        "distance": "203km",
        "date": "10/10/2025",
        "url": "https://statistik.d-u-v.org/eventdetail.php?event=121586",
        "city": "Wezemaal",
        "lat": 50.9482598,
        "lng": 4.7544622,
        "slug": "clash-der-titanen-200-2025"
    },
    {
        "name": "GR Provincie Trail Henegouwen",
        "country": "Belgium",
        "distance": "45km",
        "date": "05/10/2025",
        "url": "https://statistik.d-u-v.org/eventdetail.php?event=123096",
        "city": "Erbisoeul",
        "lat": 50.5155495,
        "lng": 3.8961158,
        "slug": "gr-provincie-trail-henegouwen-2025"
    },
    {
        "name": "Infinity Trail - Ultra Trail",
        "country": "Belgium",
        "distance": "70km",
        "date": "04/10/2025",
        "url": "https://statistik.d-u-v.org/eventdetail.php?event=121256",
        "city": "Vielsalm",
        "lat": 50.2842154,
        "lng": 5.9162783,
        "slug": "infinity-trail-ultra-trail-2025"
    },
    {
        "name": "Trail de L'Abbaye",
        "country": "Belgium",
        "distance": "50km",
        "date": "04/10/2025",
        "url": "https://statistik.d-u-v.org/eventdetail.php?event=121581",
        "city": "Villers-la-Ville",
        "lat": 50.5727285,
        "lng": 4.5342675,
        "slug": "trail-de-l-abbaye-2025"
    },
    {
        "name": "L'Ultratrail by HuyForTrail",
        "country": "Belgium",
        "distance": "50km",
        "date": "21/09/2025",
        "url": "https://statistik.d-u-v.org/eventdetail.php?event=121580",
        "city": "Andenne",
        "lat": 50.4896303,
        "lng": 5.0587475,
        "slug": "l-ultratrail-by-huyfortrail-2025"
    },
    {
        "name": "Meerdaalwoud Trail",
        "country": "Belgium",
        "distance": "50km",
        "date": "22/04/2026",
        "url": "https://www.trailrun.be/meerdaalwoud-trail/",
        "city": "Bierbeek",
        "elevation": "750m",
        "terrain": "trail",
        "utmb_index": true,
        "lat": 50.8319724,
        "lng": 4.7747499,
        "slug": "meerdaalwoud-trail-2026"
    },
    {
        "name": "De Warmste Loop - The Warmest Run",
        "country": "Belgium",
        "distance": "8h",
        "date": "29/11/2026",
        "url": "https://www.dewarmsteloop.be",
        "city": "Wingene",
        "lat": 51.0601502,
        "lng": 3.3070748,
        "slug": "de-warmste-loop-the-warmest-run-2026"
    },
    {
        "name": "Ultra Trail Haute Ardenne - Jour 2 - 57 km",
        "country": "Belgium",
        "distance": "60KM",
        "date": "02/08/2026",
        "url": "https://www.utha.be/57km",
        "city": "Station de la Baraque de Fraiture",
        "elevation": "1800m",
        "terrain": "trail",
        "slug": "ultra-trail-haute-ardenne-jour-2-57-km-2026"
    },
    {
        "name": "Ultra Trail Haute Ardenne - Jour 1 50 km",
        "country": "Belgium",
        "distance": "60KM",
        "date": "01/08/2026",
        "url": "https://www.utha.be/50km-d1",
        "city": "Malmedy",
        "elevation": "2000m",
        "terrain": "trail",
        "lat": 50.4265348,
        "lng": 6.0276059,
        "slug": "ultra-trail-haute-ardenne-jour-1-50-km-2026"
    },
    {
        "name": "Ultra Trail Haute Ardenne - Jour 1 100 km",
        "country": "Belgium",
        "distance": "100KM",
        "date": "01/08/2026",
        "url": "https://www.utha.be/100km-d1",
        "city": "Signal de Botrange",
        "elevation": "3300m",
        "terrain": "trail",
        "slug": "ultra-trail-haute-ardenne-jour-1-100-km-2026"
    },
    {
        "name": "Antwerp Backyard Ultra",
        "country": "Belgium",
        "distance": "706km",
        "date": "19/06/2026",
        "url": "http://www.antwerpbackyardultra.be",
        "city": "Schelle",
        "lat": 51.1245635,
        "lng": 4.3361875,
        "slug": "antwerp-backyard-ultra-2026"
    },
    {
        "name": "Another One Bites the Dust",
        "country": "Belgium",
        "distance": "100 km",
        "date": "03/07/2026",
        "url": "http://www.anotheronebitesthedust.be",
        "city": "Bierbeek",
        "terrain": "trail",
        "lat": 50.8319724,
        "lng": 4.7747499,
        "slug": "another-one-bites-the-dust-2026"
    },
    {
        "name": "Trail Godefroy Bouillon",
        "country": "Belgium",
        "distance": "100km",
        "date": "06/06/2026",
        "url": "https://www.trailrun.be/trail-godefroy-bouillon/",
        "city": "Bouillon",
        "terrain": "trail",
        "utmb_index": true,
        "lat": 49.7949836,
        "lng": 5.0672528,
        "slug": "trail-godefroy-bouillon-2026"
    },
    {
        "name": "Ultra Trail Haute Ardenne - Jour 1 70 km",
        "country": "Belgium",
        "distance": "70KM",
        "date": "01/08/2026",
        "url": "https://www.utha.be/70km-d1",
        "city": "Signal de Botrange",
        "elevation": "2100m",
        "terrain": "trail",
        "slug": "ultra-trail-haute-ardenne-jour-1-70-km-2026"
    },
    {
        "name": "Belgian Front Memorial Trail",
        "country": "Belgium",
        "distance": "101km",
        "date": "02/05/2026",
        "url": "http://belgianfrontmemorialtrail.be",
        "city": "Mesen",
        "lat": 50.759827,
        "lng": 2.8998324,
        "slug": "belgian-front-memorial-trail-2026"
    },
    {
        "name": "The Longest Day 50km",
        "country": "Belgium",
        "distance": "50km",
        "date": "20/06/2026",
        "url": "https://www.passionforsports.eu/nl-longestday",
        "city": "Spa",
        "terrain": "trail",
        "lat": 50.4920654,
        "lng": 5.8627569,
        "slug": "the-longest-day-50km-2026"
    },
    {
        "name": "Trail Godefroy Bouillon TGB 50",
        "country": "Belgium",
        "distance": "100 KM",
        "date": "06/06/2026",
        "url": "https://www.trailrun.be/trail-godefroy-bouillon/",
        "city": "Bouillon",
        "terrain": "trail",
        "utmb_index": true,
        "lat": 49.7949836,
        "lng": 5.0672528,
        "slug": "trail-godefroy-bouillon-tgb-50-2026"
    },
    {
        "name": "Trail Godefroy Bouillon TGB 75",
        "country": "Belgium",
        "distance": "75km",
        "date": "06/06/2026",
        "url": "https://www.trailrun.be/trail-godefroy-bouillon/",
        "city": "Bouillon",
        "lat": 49.7949836,
        "lng": 5.0672528,
        "slug": "trail-godefroy-bouillon-tgb-75-2026"
    },
    {
        "name": "Trail de la Soupe",
        "country": "Belgium",
        "distance": "100 km",
        "date": "29/11/2026",
        "url": "https://www.trailrun.be/fr/trail-de-la-soupe/#efaq-45km-dimanche-1730m-d",
        "city": "La-Roche-en-Ardenne",
        "terrain": "trail",
        "utmb_index": true,
        "lat": 50.1602833,
        "lng": 5.5627594,
        "slug": "trail-de-la-soupe-2026"
    },
    {
        "name": "Trail de Chimay",
        "country": "Belgium",
        "distance": "50km",
        "date": "09/05/2026",
        "url": "https://www.betrail.run/race/trail.de.chimay/2026/overview",
        "city": "Bourlers",
        "lat": 50.027359,
        "lng": 4.341293,
        "slug": "trail-de-chimay-2026"
    },
    {
        "name": "Legends Backyard Ultra",
        "country": "Belgium",
        "distance": "116h",
        "date": "25/04/2026",
        "url": "https://www.backyardbelgium.com/",
        "city": "Retie",
        "lat": 51.2675862,
        "lng": 5.0843883,
        "slug": "legends-backyard-ultra-2026"
    },
    {
        "name": "LaThareé Trail  56 km",
        "country": "Belgium",
        "distance": "56km",
        "date": "14/03/2026",
        "url": "https://www.latharee-trail.be/",
        "city": "Rettigny",
        "terrain": "trail",
        "lat": 50.1678509,
        "lng": 5.8801729,
        "slug": "lathare-trail-56-km-2026"
    },
    {
        "name": "Trail de la Siberie - 50km",
        "country": "Belgium",
        "distance": "52km",
        "date": "21/02/2026",
        "url": "https://statistik.d-u-v.org/eventdetail.php?event=129704",
        "city": "Profondeville",
        "lat": 50.3762043,
        "lng": 4.8675024,
        "slug": "trail-de-la-siberie-50km-2026"
    },
    {
        "name": "Trail de la Siberie - 75km",
        "country": "Belgium",
        "distance": "76km",
        "date": "21/02/2026",
        "url": "https://statistik.d-u-v.org/eventdetail.php?event=129705",
        "city": "Profondeville",
        "lat": 50.3762043,
        "lng": 4.8675024,
        "slug": "trail-de-la-siberie-75km-2026"
    },
    {
        "name": "Trail de la Siberie - 100km",
        "country": "Belgium",
        "distance": "101km",
        "date": "21/02/2026",
        "url": "https://statistik.d-u-v.org/eventdetail.php?event=129706",
        "city": "Profondeville",
        "lat": 50.3762043,
        "lng": 4.8675024,
        "slug": "trail-de-la-siberie-100km-2026"
    },
    {
        "name": "Trail de la Siberie - 125km",
        "country": "Belgium",
        "distance": "128km",
        "date": "21/02/2026",
        "url": "https://statistik.d-u-v.org/eventdetail.php?event=129707",
        "city": "Profondeville",
        "lat": 50.3762043,
        "lng": 4.8675024,
        "slug": "trail-de-la-siberie-125km-2026"
    },
    {
        "name": "Ultra Trail de la Sibérie - 160km",
        "country": "Belgium",
        "distance": "161km",
        "date": "20/02/2026",
        "url": "https://statistik.d-u-v.org/eventdetail.php?event=129708",
        "city": "Profondeville",
        "lat": 50.3762043,
        "lng": 4.8675024,
        "slug": "ultra-trail-de-la-sib-rie-160km-2026"
    },
    {
        "name": "Castle Trail Bouillon",
        "country": "Belgium",
        "distance": "50km",
        "date": "15/02/2026",
        "url": "https://statistik.d-u-v.org/eventdetail.php?event=129579",
        "city": "Bouillon",
        "lat": 49.7949836,
        "lng": 5.0672528,
        "slug": "castle-trail-bouillon-2026"
    },
    {
        "name": "Houffatrail 50km",
        "country": "Belgium",
        "distance": "50km",
        "date": "24/01/2026",
        "url": "https://statistik.d-u-v.org/eventdetail.php?event=129693",
        "city": "Houffalize",
        "lat": 50.1323761,
        "lng": 5.7886928,
        "slug": "houffatrail-50km-2026"
    },
    {
        "name": "Houffatrail 63km",
        "country": "Belgium",
        "distance": "63km",
        "date": "24/01/2026",
        "url": "https://statistik.d-u-v.org/eventdetail.php?event=129694",
        "city": "Houffalize",
        "lat": 50.1323761,
        "lng": 5.7886928,
        "slug": "houffatrail-63km-2026"
    },
    {
        "name": "Pierewaai Trail",
        "country": "Netherlands",
        "distance": "45km",
        "date": "20/01/2024",
        "url": "https://statistik.d-u-v.org/eventdetail.php?event=98648",
        "city": "IJmuiden",
        "lat": 52.4574139,
        "lng": 4.6116211,
        "slug": "pierewaai-trail-2024"
    },
    {
        "name": "Leenderbos Ultra Trail",
        "country": "Netherlands",
        "distance": "50km",
        "date": "28/01/2024",
        "url": "https://statistik.d-u-v.org/eventdetail.php?event=108289",
        "city": "Leende",
        "lat": 51.3484037,
        "lng": 5.5518897,
        "slug": "leenderbos-ultra-trail-2024"
    },
    {
        "name": "Drielandenpunt Winter Trail",
        "country": "Netherlands",
        "distance": "50km",
        "date": "04/02/2024",
        "url": "https://statistik.d-u-v.org/eventdetail.php?event=102041",
        "city": "Vaals",
        "lat": 50.7781016,
        "lng": 5.9810696,
        "slug": "drielandenpunt-winter-trail-2024"
    },
    {
        "name": "Dutch Coast Ultra Run by Night 75km",
        "country": "Netherlands",
        "distance": "75km",
        "date": "09/02/2024",
        "url": "https://statistik.d-u-v.org/eventdetail.php?event=105019",
        "city": "Den Helder",
        "lat": 52.9529894,
        "lng": 4.8267592,
        "slug": "dutch-coast-ultra-run-by-night-75km-2024"
    },
    {
        "name": "Dutch Coast Ultra Run by Night 50km",
        "country": "Netherlands",
        "distance": "50km",
        "date": "09/02/2024",
        "url": "https://statistik.d-u-v.org/eventdetail.php?event=105018",
        "city": "Den Helder",
        "lat": 52.9529894,
        "lng": 4.8267592,
        "slug": "dutch-coast-ultra-run-by-night-50km-2024"
    },
    {
        "name": "Bosbokken Trail",
        "country": "Netherlands",
        "distance": "47km",
        "date": "25/02/2024",
        "url": "https://statistik.d-u-v.org/eventdetail.php?event=105519",
        "city": "Burgh-Haamstede",
        "lat": 51.7022442,
        "lng": 3.722061,
        "slug": "bosbokken-trail-2024"
    },
    {
        "name": "65 van Walcheren",
        "country": "Netherlands",
        "distance": "65km",
        "date": "03/03/2024",
        "url": "https://statistik.d-u-v.org/eventdetail.php?event=106147",
        "city": "Vrouwenpolder",
        "lat": 51.576602,
        "lng": 3.6165776,
        "slug": "65-van-walcheren-2024"
    },
    {
        "name": "Trailrun Terschelling",
        "country": "Netherlands",
        "distance": "50km",
        "date": "03/03/2024",
        "url": "https://statistik.d-u-v.org/eventdetail.php?event=102154",
        "city": "West-Terschelling",
        "lat": 53.3613027,
        "lng": 5.2160421,
        "slug": "trailrun-terschelling-2024"
    },
    {
        "name": "SallandTrail 50 km",
        "country": "Netherlands",
        "distance": "50km",
        "date": "09/03/2024",
        "url": "https://statistik.d-u-v.org/eventdetail.php?event=106218",
        "city": "Nijverdal",
        "lat": 52.3592015,
        "lng": 6.4654075,
        "slug": "sallandtrail-50-km-2024"
    },
    {
        "name": "SallandTrail 80 km (50 Mijl)",
        "country": "Netherlands",
        "distance": "80km",
        "date": "09/03/2024",
        "url": "https://statistik.d-u-v.org/eventdetail.php?event=106217",
        "city": "Nijverdal",
        "lat": 52.3592015,
        "lng": 6.4654075,
        "slug": "sallandtrail-80-km-50-mijl-2024"
    },
    {
        "name": "Salomon Vuurtorentrail Festival Ameland 60km",
        "country": "Netherlands",
        "distance": "60km",
        "date": "17/03/2024",
        "url": "https://statistik.d-u-v.org/eventdetail.php?event=97000",
        "city": "Hollum Ameland",
        "slug": "salomon-vuurtorentrail-festival-ameland-60km-2024"
    },
    {
        "name": "12hrs Sittard - 50km Split",
        "country": "Netherlands",
        "distance": "50km",
        "date": "23/03/2024",
        "url": "https://statistik.d-u-v.org/eventdetail.php?event=106062",
        "city": "Sittard",
        "lat": 50.9974235,
        "lng": 5.8666627,
        "slug": "12hrs-sittard-50km-split-2024"
    },
    {
        "name": "24hrs Sittard - 50km Split",
        "country": "Netherlands",
        "distance": "50km",
        "date": "23/03/2024",
        "url": "https://statistik.d-u-v.org/eventdetail.php?event=106057",
        "city": "Sittard",
        "lat": 50.9974235,
        "lng": 5.8666627,
        "slug": "24hrs-sittard-50km-split-2024"
    },
    {
        "name": "6hrs Sittard",
        "country": "Netherlands",
        "distance": "6h",
        "date": "24/03/2024",
        "url": "https://statistik.d-u-v.org/eventdetail.php?event=99486",
        "city": "Sittard",
        "terrain": "road",
        "lat": 50.9974235,
        "lng": 5.8666627,
        "slug": "6hrs-sittard-2024"
    },
    {
        "name": "De 120 van Texel",
        "country": "Netherlands",
        "distance": "120km",
        "date": "24/03/2024",
        "url": "https://statistik.d-u-v.org/eventdetail.php?event=105829",
        "city": "Den Burg (Texel)",
        "elevation": "13m",
        "terrain": "trail",
        "slug": "de-120-van-texel-2024"
    },
    {
        "name": "De Zestig van Texel",
        "country": "Netherlands",
        "distance": "60km",
        "date": "24/03/2024",
        "url": "https://statistik.d-u-v.org/eventdetail.php?event=105828",
        "city": "Den Hoorn (Texel)",
        "slug": "de-zestig-van-texel-2024"
    },
    {
        "name": "6hrs Sittard - 50km Split",
        "country": "Netherlands",
        "distance": "50km",
        "date": "24/03/2024",
        "url": "https://statistik.d-u-v.org/eventdetail.php?event=106060",
        "city": "Sittard",
        "terrain": "road",
        "lat": 50.9974235,
        "lng": 5.8666627,
        "slug": "6hrs-sittard-50km-split-2024"
    },
    {
        "name": "Cauberg Trail",
        "country": "Netherlands",
        "distance": "54km",
        "date": "30/03/2024",
        "url": "https://statistik.d-u-v.org/eventdetail.php?event=97954",
        "city": "Valkenburg",
        "elevation": "1400m",
        "terrain": "trail",
        "lat": 50.8647531,
        "lng": 5.8312518,
        "slug": "cauberg-trail-2024"
    },
    {
        "name": "Runforestrun Hart van Drenthe",
        "country": "Netherlands",
        "distance": "52km",
        "date": "13/04/2024",
        "url": "https://statistik.d-u-v.org/eventdetail.php?event=97613",
        "city": "Ellertshaar",
        "elevation": "500m",
        "terrain": "trail",
        "lat": 52.8964673,
        "lng": 6.7409769,
        "slug": "runforestrun-hart-van-drenthe-2024"
    },
    {
        "name": "Pegasus Ultra Trail",
        "country": "Netherlands",
        "distance": "50km",
        "date": "20/04/2024",
        "url": "https://statistik.d-u-v.org/eventdetail.php?event=106723",
        "city": "Ede",
        "lat": 52.0716826,
        "lng": 5.7455106,
        "slug": "pegasus-ultra-trail-2024"
    },
    {
        "name": "Eemlake Run (Eemmeerloop)",
        "country": "Netherlands",
        "distance": "50km",
        "date": "20/04/2024",
        "url": "https://statistik.d-u-v.org/eventdetail.php?event=106907",
        "city": "Bunschoten",
        "lat": 52.2391743,
        "lng": 5.3734101,
        "slug": "eemlake-run-eemmeerloop-2024"
    },
    {
        "name": "Petranpad Ultra Run 112k",
        "country": "Netherlands",
        "distance": "112km",
        "date": "04/05/2024",
        "url": "https://statistik.d-u-v.org/eventdetail.php?event=101060",
        "city": "Meerlo",
        "lat": 51.51187,
        "lng": 6.0869555,
        "slug": "petranpad-ultra-run-112k-2024"
    },
    {
        "name": "Petranpad Ultra Trail 60k",
        "country": "Netherlands",
        "distance": "64km",
        "date": "04/05/2024",
        "url": "https://statistik.d-u-v.org/eventdetail.php?event=101059",
        "city": "Meerlo",
        "lat": 51.51187,
        "lng": 6.0869555,
        "slug": "petranpad-ultra-trail-60k-2024"
    },
    {
        "name": "Pallas 67 Ultrameerdaagse - stage 1 - Wageningen - Arnhem",
        "country": "Netherlands",
        "distance": "51km",
        "date": "08/05/2024",
        "url": "https://statistik.d-u-v.org/eventdetail.php?event=105646",
        "city": "Wageningen",
        "lat": 51.9663016,
        "lng": 5.6662814,
        "slug": "pallas-67-ultrameerdaagse-stage-1-wageningen-arnhem-2024"
    },
    {
        "name": "Pallas 67 Ultrameerdaagse - stage 2 - Arnhem - Doesburg",
        "country": "Netherlands",
        "distance": "51km",
        "date": "09/05/2024",
        "url": "https://statistik.d-u-v.org/eventdetail.php?event=105647",
        "city": "Arnhem",
        "lat": 51.984257,
        "lng": 5.9108573,
        "slug": "pallas-67-ultrameerdaagse-stage-2-arnhem-doesburg-2024"
    },
    {
        "name": "Pallas 67 Ultrameerdaagse - stage 3 - Arnhem - Lobith",
        "country": "Netherlands",
        "distance": "66km",
        "date": "10/05/2024",
        "url": "https://statistik.d-u-v.org/eventdetail.php?event=105648",
        "city": "Arnhem",
        "lat": 51.984257,
        "lng": 5.9108573,
        "slug": "pallas-67-ultrameerdaagse-stage-3-arnhem-lobith-2024"
    },
    {
        "name": "Pallas 67 Ultrameerdaagse - stage 4 - Arnhem - Veluwe",
        "country": "Netherlands",
        "distance": "51km",
        "date": "11/05/2024",
        "url": "https://statistik.d-u-v.org/eventdetail.php?event=105649",
        "city": "Arnhem",
        "lat": 51.984257,
        "lng": 5.9108573,
        "slug": "pallas-67-ultrameerdaagse-stage-4-arnhem-veluwe-2024"
    },
    {
        "name": "Salomon Koning van Spanje Trail - 80km",
        "country": "Netherlands",
        "distance": "81km",
        "date": "11/05/2024",
        "url": "https://statistik.d-u-v.org/eventdetail.php?event=109119",
        "city": "Gulpen",
        "lat": 50.8139879,
        "lng": 5.8899585,
        "slug": "salomon-koning-van-spanje-trail-80km-2024"
    },
    {
        "name": "van Balk",
        "country": "Netherlands",
        "distance": "80km",
        "date": "11/05/2024",
        "url": "https://statistik.d-u-v.org/eventdetail.php?event=107563",
        "city": "BALK",
        "lat": 52.8989296,
        "lng": 5.5830455,
        "slug": "van-balk-2024"
    },
    {
        "name": "Pallas 67 Ultrameerdaagse - stage 5 - Arnhem - Wageningen",
        "country": "Netherlands",
        "distance": "51km",
        "date": "12/05/2024",
        "url": "https://statistik.d-u-v.org/eventdetail.php?event=105650",
        "city": "Arnhem",
        "lat": 51.984257,
        "lng": 5.9108573,
        "slug": "pallas-67-ultrameerdaagse-stage-5-arnhem-wageningen-2024"
    },
    {
        "name": "Sri Chinmoy 100km-Lauf Amsterdam",
        "country": "Netherlands",
        "distance": "100km",
        "date": "24/05/2024",
        "url": "https://statistik.d-u-v.org/eventdetail.php?event=108137",
        "city": "Amstelveen",
        "lat": 52.3028209,
        "lng": 4.8596844,
        "slug": "sri-chinmoy-100km-lauf-amsterdam-2024"
    },
    {
        "name": "Sri Chinmoy 50 km-Lauf Amsterdam",
        "country": "Netherlands",
        "distance": "50km",
        "date": "24/05/2024",
        "url": "https://statistik.d-u-v.org/eventdetail.php?event=108136",
        "city": "Amstelveen",
        "lat": 52.3028209,
        "lng": 4.8596844,
        "slug": "sri-chinmoy-50-km-lauf-amsterdam-2024"
    },
    {
        "name": "12-Uurs Run Middelburg",
        "country": "Netherlands",
        "distance": "13h",
        "date": "25/05/2024",
        "url": "https://statistik.d-u-v.org/eventdetail.php?event=107229",
        "city": "Middelburg",
        "lat": 51.4996784,
        "lng": 3.6137371,
        "slug": "12-uurs-run-middelburg-2024"
    },
    {
        "name": "VAM8",
        "country": "Netherlands",
        "distance": "8h",
        "date": "25/05/2024",
        "url": "https://statistik.d-u-v.org/eventdetail.php?event=107903",
        "city": "Wijster",
        "lat": 52.8148592,
        "lng": 6.5163531,
        "slug": "vam8-2024"
    },
    {
        "name": "VAM12",
        "country": "Netherlands",
        "distance": "12h",
        "date": "25/05/2024",
        "url": "https://statistik.d-u-v.org/eventdetail.php?event=99640",
        "city": "Wijster",
        "lat": 52.8148592,
        "lng": 6.5163531,
        "slug": "vam12-2024"
    },
    {
        "name": "2de Hel van Westeremden, een klein paradijs",
        "country": "Netherlands",
        "distance": "45km",
        "date": "25/05/2024",
        "url": "https://statistik.d-u-v.org/eventdetail.php?event=106243",
        "city": "Sint Annen",
        "lat": 53.2979462,
        "lng": 6.6652567,
        "slug": "2de-hel-van-westeremden-een-klein-paradijs-2024"
    },
    {
        "name": "Amerongse Berg Ultra 50k",
        "country": "Netherlands",
        "distance": "50km",
        "date": "26/05/2024",
        "url": "https://statistik.d-u-v.org/eventdetail.php?event=108243",
        "city": "Overberg",
        "lat": 52.0390484,
        "lng": 5.4964645,
        "slug": "amerongse-berg-ultra-50k-2024"
    },
    {
        "name": "Linie1629ultra",
        "country": "Netherlands",
        "distance": "50km",
        "date": "01/06/2024",
        "url": "https://statistik.d-u-v.org/eventdetail.php?event=106071",
        "city": "Vught",
        "lat": 51.6511806,
        "lng": 5.2368001,
        "slug": "linie1629ultra-2024"
    },
    {
        "name": "Pierewaai Summer Beach Trail",
        "country": "Netherlands",
        "distance": "50km",
        "date": "01/06/2024",
        "url": "https://statistik.d-u-v.org/eventdetail.php?event=104994",
        "city": "IJmuiden",
        "lat": 52.4574139,
        "lng": 4.6116211,
        "slug": "pierewaai-summer-beach-trail-2024"
    },
    {
        "name": "Liberation Trail - stage 5: Eindhoven - Groesbeek",
        "country": "Netherlands",
        "distance": "81km",
        "date": "15/06/2024",
        "url": "https://statistik.d-u-v.org/eventdetail.php?event=108326",
        "city": "Eindhoven",
        "lat": 51.4392648,
        "lng": 5.478633,
        "slug": "liberation-trail-stage-5-eindhoven-groesbeek-2024"
    },
    {
        "name": "Rondom Stad",
        "country": "Netherlands",
        "distance": "66km",
        "date": "22/06/2024",
        "url": "https://statistik.d-u-v.org/eventdetail.php?event=101921",
        "city": "Sint Annen",
        "lat": 53.2979462,
        "lng": 6.6652567,
        "slug": "rondom-stad-2024"
    },
    {
        "name": "Zes uur van de Haarlemmermeer",
        "country": "Netherlands",
        "distance": "6h",
        "date": "29/06/2024",
        "url": "https://statistik.d-u-v.org/eventdetail.php?event=98995",
        "city": "Hoofddorp",
        "lat": 52.305554,
        "lng": 4.6926644,
        "slug": "zes-uur-van-de-haarlemmermeer-2024"
    },
    {
        "name": "VechtdalTrail",
        "country": "Netherlands",
        "distance": "50km",
        "date": "06/07/2024",
        "url": "https://statistik.d-u-v.org/eventdetail.php?event=109094",
        "city": "Ommen",
        "lat": 52.510347,
        "lng": 6.4524247,
        "slug": "vechtdaltrail-2024"
    },
    {
        "name": "De 6 Uur van Deventer - 50km Split",
        "country": "Netherlands",
        "distance": "50km",
        "date": "13/07/2024",
        "url": "https://statistik.d-u-v.org/eventdetail.php?event=109183",
        "city": "Deventer",
        "lat": 52.2694897,
        "lng": 6.2364886,
        "slug": "de-6-uur-van-deventer-50km-split-2024"
    },
    {
        "name": "De 6 Uur van Deventer",
        "country": "Netherlands",
        "distance": "6h",
        "date": "13/07/2024",
        "url": "https://statistik.d-u-v.org/eventdetail.php?event=104997",
        "city": "Deventer",
        "lat": 52.2694897,
        "lng": 6.2364886,
        "slug": "de-6-uur-van-deventer-2024"
    },
    {
        "name": "RUN Winschoten 50 km - Nederlands Kampioenschap",
        "country": "Netherlands",
        "distance": "50km",
        "date": "14/09/2024",
        "url": "https://statistik.d-u-v.org/eventdetail.php?event=110754",
        "city": "Winschoten",
        "lat": 53.143001,
        "lng": 7.0380717,
        "slug": "run-winschoten-50-km-nederlands-kampioenschap-2024"
    },
    {
        "name": "RUN Winschoten 100 km - Nederlands Kampioenschap",
        "country": "Netherlands",
        "distance": "100km",
        "date": "14/09/2024",
        "url": "https://statistik.d-u-v.org/eventdetail.php?event=110753",
        "city": "Winschoten",
        "lat": 53.143001,
        "lng": 7.0380717,
        "slug": "run-winschoten-100-km-nederlands-kampioenschap-2024"
    },
    {
        "name": "RUN Winschoten 50 km - open race",
        "country": "Netherlands",
        "distance": "50km",
        "date": "14/09/2024",
        "url": "https://statistik.d-u-v.org/eventdetail.php?event=110628",
        "city": "Winschoten",
        "lat": 53.143001,
        "lng": 7.0380717,
        "slug": "run-winschoten-50-km-open-race-2024"
    },
    {
        "name": "RUN Winschoten 100 km - open race",
        "country": "Netherlands",
        "distance": "100km",
        "date": "14/09/2024",
        "url": "https://statistik.d-u-v.org/eventdetail.php?event=110627",
        "city": "Winschoten",
        "lat": 53.143001,
        "lng": 7.0380717,
        "slug": "run-winschoten-100-km-open-race-2024"
    },
    {
        "name": "Zevenheuvelentrail - NK trailrunning lange trail",
        "country": "Netherlands",
        "distance": "60km",
        "date": "21/09/2024",
        "url": "https://statistik.d-u-v.org/eventdetail.php?event=112006",
        "city": "Nijmegen",
        "lat": 51.8474946,
        "lng": 5.8637771,
        "slug": "zevenheuvelentrail-nk-trailrunning-lange-trail-2024"
    },
    {
        "name": "Zevenheuvelentrail",
        "country": "Netherlands",
        "distance": "60km",
        "date": "21/09/2024",
        "url": "https://statistik.d-u-v.org/eventdetail.php?event=112005",
        "city": "Nijmegen",
        "lat": 51.8474946,
        "lng": 5.8637771,
        "slug": "zevenheuvelentrail-2024"
    },
    {
        "name": "Sri Chinmoy 6-Stunden-Lauf Amsterdam",
        "country": "Netherlands",
        "distance": "6h",
        "date": "28/09/2024",
        "url": "https://statistik.d-u-v.org/eventdetail.php?event=110934",
        "city": "Amstelveen",
        "lat": 52.3028209,
        "lng": 4.8596844,
        "slug": "sri-chinmoy-6-stunden-lauf-amsterdam-2024"
    },
    {
        "name": "Brekeld Runners Trail",
        "country": "Netherlands",
        "distance": "50km",
        "date": "05/10/2024",
        "url": "https://statistik.d-u-v.org/eventdetail.php?event=114326",
        "city": "Rijssen",
        "lat": 52.3080276,
        "lng": 6.5213004,
        "slug": "brekeld-runners-trail-2024"
    },
    {
        "name": "Indian Summer Ultra 50 km",
        "country": "Netherlands",
        "distance": "50km",
        "date": "12/10/2024",
        "url": "https://statistik.d-u-v.org/eventdetail.php?event=103725",
        "city": "Gasselte",
        "lat": 52.971916,
        "lng": 6.7921853,
        "slug": "indian-summer-ultra-50-km-2024"
    },
    {
        "name": "Indian Summer Ultra 75 km",
        "country": "Netherlands",
        "distance": "75km",
        "date": "12/10/2024",
        "url": "https://statistik.d-u-v.org/eventdetail.php?event=103724",
        "city": "Gasselte",
        "lat": 52.971916,
        "lng": 6.7921853,
        "slug": "indian-summer-ultra-75-km-2024"
    },
    {
        "name": "Indian Summer Ultra 100 km",
        "country": "Netherlands",
        "distance": "100km",
        "date": "12/10/2024",
        "url": "https://statistik.d-u-v.org/eventdetail.php?event=103723",
        "city": "Gasselte",
        "lat": 52.971916,
        "lng": 6.7921853,
        "slug": "indian-summer-ultra-100-km-2024"
    },
    {
        "name": "Gaasterland Trail",
        "country": "Netherlands",
        "distance": "50km",
        "date": "26/10/2024",
        "url": "https://statistik.d-u-v.org/eventdetail.php?event=102079",
        "city": "Harich",
        "lat": 52.902242,
        "lng": 5.5642127,
        "slug": "gaasterland-trail-2024"
    },
    {
        "name": "LauwersmeerLoop",
        "country": "Netherlands",
        "distance": "60km",
        "date": "03/11/2024",
        "url": "https://statistik.d-u-v.org/eventdetail.php?event=109164",
        "city": "Zoutkamp",
        "lat": 53.3369602,
        "lng": 6.3011339,
        "slug": "lauwersmeerloop-2024"
    },
    {
        "name": "Graef Castricum Trail Ultra 60km",
        "country": "Netherlands",
        "distance": "60km",
        "date": "24/11/2024",
        "url": "https://statistik.d-u-v.org/eventdetail.php?event=114055",
        "city": "Castricum",
        "lat": 52.5496739,
        "lng": 4.6696185,
        "slug": "graef-castricum-trail-ultra-60km-2024"
    },
    {
        "name": "UHUT UtrechtseHeuvelUltratrail - Doorn Loop",
        "country": "Netherlands",
        "distance": "50km",
        "date": "30/11/2024",
        "url": "https://statistik.d-u-v.org/eventdetail.php?event=63759",
        "city": "Leersum",
        "lat": 52.0102642,
        "lng": 5.4332757,
        "slug": "uhut-utrechtseheuvelultratrail-doorn-loop-2024"
    },
    {
        "name": "UHUT UtrechtseHeuvelUltratrail 100km - Doorn Loop split",
        "country": "Netherlands",
        "distance": "50km",
        "date": "30/11/2024",
        "url": "https://statistik.d-u-v.org/eventdetail.php?event=114435",
        "city": "Leersum",
        "lat": 52.0102642,
        "lng": 5.4332757,
        "slug": "uhut-utrechtseheuvelultratrail-100km-doorn-loop-split-2024"
    },
    {
        "name": "Voorne's Duin Trail",
        "country": "Netherlands",
        "distance": "60km",
        "date": "01/12/2024",
        "url": "https://statistik.d-u-v.org/eventdetail.php?event=114343",
        "city": "Oostvoorne",
        "lat": 51.914271,
        "lng": 4.1038932,
        "slug": "voorne-s-duin-trail-2024"
    },
    {
        "name": "UHUT UtrechtseHeuvelUltratrail - Rhenen Loop",
        "country": "Netherlands",
        "distance": "50km",
        "date": "01/12/2024",
        "url": "https://statistik.d-u-v.org/eventdetail.php?event=62061",
        "city": "Leersum",
        "lat": 52.0102642,
        "lng": 5.4332757,
        "slug": "uhut-utrechtseheuvelultratrail-rhenen-loop-2024"
    },
    {
        "name": "UHUT UtrechtseHeuvelUltratrail 100km - Rhenen Loop split",
        "country": "Netherlands",
        "distance": "50km",
        "date": "01/12/2024",
        "url": "https://statistik.d-u-v.org/eventdetail.php?event=114434",
        "city": "Leersum",
        "lat": 52.0102642,
        "lng": 5.4332757,
        "slug": "uhut-utrechtseheuvelultratrail-100km-rhenen-loop-split-2024"
    },
    {
        "name": "Sint Annen 240 - 50mi",
        "country": "Netherlands",
        "distance": "50mi",
        "date": "27/12/2024",
        "url": "https://statistik.d-u-v.org/eventdetail.php?event=103936",
        "city": "Sint Annen",
        "lat": 53.2979462,
        "lng": 6.6652567,
        "slug": "sint-annen-240-50mi-2024"
    },
    {
        "name": "Veluwezoom Trail - Winter",
        "country": "Netherlands",
        "distance": "58km",
        "date": "29/12/2024",
        "url": "https://statistik.d-u-v.org/eventdetail.php?event=113964",
        "city": "Dieren",
        "lat": 52.0526703,
        "lng": 6.1014431,
        "slug": "veluwezoom-trail-winter-2024"
    },
    {
        "name": "Cauberg Trail - winter edition",
        "country": "Netherlands",
        "distance": "54km",
        "date": "04/01/2025",
        "url": "https://statistik.d-u-v.org/eventdetail.php?event=114475",
        "city": "Valkenburg",
        "lat": 50.8647531,
        "lng": 5.8312518,
        "slug": "cauberg-trail-winter-edition-2025"
    },
    {
        "name": "UHUT UtrechtseHeuvelUltratrail 100km",
        "country": "Netherlands",
        "distance": "100km",
        "date": "24/05/2025",
        "url": "https://statistik.d-u-v.org/eventdetail.php?event=122021",
        "city": "Leersum",
        "lat": 52.0102642,
        "lng": 5.4332757,
        "slug": "uhut-utrechtseheuvelultratrail-100km-2025"
    },
    {
        "name": "UHUT UtrechtseHeuvelUltratrail 50km",
        "country": "Netherlands",
        "distance": "50km",
        "date": "24/05/2025",
        "url": "https://statistik.d-u-v.org/eventdetail.php?event=122020",
        "city": "Leersum",
        "lat": 52.0102642,
        "lng": 5.4332757,
        "slug": "uhut-utrechtseheuvelultratrail-50km-2025"
    },
    {
        "name": "Sri Chinmoy 50 km-Lauf Amsterdam",
        "country": "Netherlands",
        "distance": "50km",
        "date": "24/05/2025",
        "url": "https://statistik.d-u-v.org/eventdetail.php?event=117111",
        "city": "Amstelveen",
        "lat": 52.3028209,
        "lng": 4.8596844,
        "slug": "sri-chinmoy-50-km-lauf-amsterdam-2025"
    },
    {
        "name": "Sri Chinmoy 100km-Lauf Amsterdam",
        "country": "Netherlands",
        "distance": "100km",
        "date": "24/05/2025",
        "url": "https://statistik.d-u-v.org/eventdetail.php?event=117110",
        "city": "Amstelveen",
        "lat": 52.3028209,
        "lng": 4.8596844,
        "slug": "sri-chinmoy-100km-lauf-amsterdam-2025"
    },
    {
        "name": "UHUT UtrechtseHeuvelUltratrail 75 km - Spring Edition",
        "country": "Netherlands",
        "distance": "75km",
        "date": "24/05/2025",
        "url": "https://statistik.d-u-v.org/eventdetail.php?event=122136",
        "city": "Leersum",
        "lat": 52.0102642,
        "lng": 5.4332757,
        "slug": "uhut-utrechtseheuvelultratrail-75-km-spring-edition-2025"
    },
    {
        "name": "Pallas 67 Ultrameerdaagse - stage 1",
        "country": "Netherlands",
        "distance": "58km",
        "date": "28/05/2025",
        "url": "https://statistik.d-u-v.org/eventdetail.php?event=111942",
        "city": "Heerlen",
        "lat": 50.8775239,
        "lng": 5.9815066,
        "slug": "pallas-67-ultrameerdaagse-stage-1-2025"
    },
    {
        "name": "Pallas 67 Ultrameerdaagse - stage 2",
        "country": "Netherlands",
        "distance": "53.2km",
        "date": "29/05/2025",
        "url": "https://statistik.d-u-v.org/eventdetail.php?event=111943",
        "city": "Heerlen",
        "lat": 50.8775239,
        "lng": 5.9815066,
        "slug": "pallas-67-ultrameerdaagse-stage-2-2025"
    },
    {
        "name": "Pallas 67 Ultrameerdaagse - stage 3",
        "country": "Netherlands",
        "distance": "54.5km",
        "date": "30/05/2025",
        "url": "https://statistik.d-u-v.org/eventdetail.php?event=111944",
        "city": "Heerlen",
        "lat": 50.8775239,
        "lng": 5.9815066,
        "slug": "pallas-67-ultrameerdaagse-stage-3-2025"
    },
    {
        "name": "VAM8",
        "country": "Netherlands",
        "distance": "8h",
        "date": "31/05/2025",
        "url": "https://statistik.d-u-v.org/eventdetail.php?event=121197",
        "city": "Wijster",
        "lat": 52.8148592,
        "lng": 6.5163531,
        "slug": "vam8-2025"
    },
    {
        "name": "VAM12",
        "country": "Netherlands",
        "distance": "12h",
        "date": "31/05/2025",
        "url": "https://statistik.d-u-v.org/eventdetail.php?event=121196",
        "city": "Wijster",
        "lat": 52.8148592,
        "lng": 6.5163531,
        "slug": "vam12-2025"
    },
    {
        "name": "Pallas 67 Ultrameerdaagse - stage 4",
        "country": "Netherlands",
        "distance": "52.5km",
        "date": "31/05/2025",
        "url": "https://statistik.d-u-v.org/eventdetail.php?event=111945",
        "city": "Heerlen",
        "lat": 50.8775239,
        "lng": 5.9815066,
        "slug": "pallas-67-ultrameerdaagse-stage-4-2025"
    },
    {
        "name": "Pallas 67 Ultrameerdaagse - stage 5",
        "country": "Netherlands",
        "distance": "52km",
        "date": "01/06/2025",
        "url": "https://statistik.d-u-v.org/eventdetail.php?event=111946",
        "city": "Heerlen",
        "lat": 50.8775239,
        "lng": 5.9815066,
        "slug": "pallas-67-ultrameerdaagse-stage-5-2025"
    },
    {
        "name": "Linie1629ultra",
        "country": "Netherlands",
        "distance": "50km",
        "date": "07/06/2025",
        "url": "https://statistik.d-u-v.org/eventdetail.php?event=108097",
        "city": "Vught",
        "lat": 51.6511806,
        "lng": 5.2368001,
        "slug": "linie1629ultra-2025"
    },
    {
        "name": "Dik doen in de Toen",
        "country": "Netherlands",
        "distance": "50km",
        "date": "09/06/2025",
        "url": "https://statistik.d-u-v.org/eventdetail.php?event=115340",
        "city": "Groningen",
        "lat": 53.2190652,
        "lng": 6.5680077,
        "slug": "dik-doen-in-de-toen-2025"
    },
    {
        "name": "Marathon van Kerkwerve",
        "country": "Netherlands",
        "distance": "45.8km",
        "date": "14/06/2025",
        "url": "https://statistik.d-u-v.org/eventdetail.php?event=120302",
        "city": "Kerkwerve",
        "lat": 51.6863988,
        "lng": 3.8994996,
        "slug": "marathon-van-kerkwerve-2025"
    },
    {
        "name": "Liberation Trail - stage 5: Eindhoven - Nijmegen",
        "country": "Netherlands",
        "distance": "81km",
        "date": "14/06/2025",
        "url": "https://statistik.d-u-v.org/eventdetail.php?event=119932",
        "city": "Eindhoven",
        "lat": 51.4392648,
        "lng": 5.478633,
        "slug": "liberation-trail-stage-5-eindhoven-nijmegen-2025"
    },
    {
        "name": "12-Uurs Run Middelburg",
        "country": "Netherlands",
        "distance": "13h",
        "date": "20/06/2025",
        "url": "https://statistik.d-u-v.org/eventdetail.php?event=121991",
        "city": "Middelburg",
        "lat": 51.4996784,
        "lng": 3.6137371,
        "slug": "12-uurs-run-middelburg-2025"
    },
    {
        "name": "Rondom Stad",
        "country": "Netherlands",
        "distance": "70km",
        "date": "21/06/2025",
        "url": "https://statistik.d-u-v.org/eventdetail.php?event=114348",
        "city": "Sint Annen",
        "lat": 53.2979462,
        "lng": 6.6652567,
        "slug": "rondom-stad-2025"
    },
    {
        "name": "Pierewaai Summer Beach Trail",
        "country": "Netherlands",
        "distance": "50km",
        "date": "21/06/2025",
        "url": "https://statistik.d-u-v.org/eventdetail.php?event=118593",
        "city": "IJmuiden",
        "lat": 52.4574139,
        "lng": 4.6116211,
        "slug": "pierewaai-summer-beach-trail-2025"
    },
    {
        "name": "BUT100 (Brabants UltraTrail) - 100 km",
        "country": "Netherlands",
        "distance": "100km",
        "date": "28/06/2025",
        "url": "https://statistik.d-u-v.org/eventdetail.php?event=122230",
        "city": "Leende",
        "lat": 51.3484037,
        "lng": 5.5518897,
        "slug": "but100-brabants-ultratrail-100-km-2025"
    },
    {
        "name": "BUT100 (Brabants UltraTrail) - 75 km",
        "country": "Netherlands",
        "distance": "75km",
        "date": "28/06/2025",
        "url": "https://statistik.d-u-v.org/eventdetail.php?event=122229",
        "city": "Leende",
        "lat": 51.3484037,
        "lng": 5.5518897,
        "slug": "but100-brabants-ultratrail-75-km-2025"
    },
    {
        "name": "BUT100 (Brabants UltraTrail) - 50 km Noord",
        "country": "Netherlands",
        "distance": "50km",
        "date": "28/06/2025",
        "url": "https://statistik.d-u-v.org/eventdetail.php?event=122228",
        "city": "Leende",
        "lat": 51.3484037,
        "lng": 5.5518897,
        "slug": "but100-brabants-ultratrail-50-km-noord-2025"
    },
    {
        "name": "BUT100 (Brabants UltraTrail) - 50 km Zuid",
        "country": "Netherlands",
        "distance": "50km",
        "date": "28/06/2025",
        "url": "https://statistik.d-u-v.org/eventdetail.php?event=122227",
        "city": "Leende",
        "lat": 51.3484037,
        "lng": 5.5518897,
        "slug": "but100-brabants-ultratrail-50-km-zuid-2025"
    },
    {
        "name": "Zes uur van de Haarlemmermeer",
        "country": "Netherlands",
        "distance": "6h",
        "date": "28/06/2025",
        "url": "https://statistik.d-u-v.org/eventdetail.php?event=108596",
        "city": "Hoofddorp",
        "lat": 52.305554,
        "lng": 4.6926644,
        "slug": "zes-uur-van-de-haarlemmermeer-2025"
    },
    {
        "name": "VechtdalTrail",
        "country": "Netherlands",
        "distance": "50km",
        "date": "05/07/2025",
        "url": "https://statistik.d-u-v.org/eventdetail.php?event=114502",
        "city": "Ommen",
        "lat": 52.510347,
        "lng": 6.4524247,
        "slug": "vechtdaltrail-2025"
    },
    {
        "name": "VUT100 (Veluwse Ultra Trail) - 100km",
        "country": "Netherlands",
        "distance": "100km",
        "date": "26/07/2025",
        "url": "https://statistik.d-u-v.org/eventdetail.php?event=122226",
        "city": "Elspeet",
        "lat": 52.2910649,
        "lng": 5.7884632,
        "slug": "vut100-veluwse-ultra-trail-100km-2025"
    },
    {
        "name": "VUT100 (Veluwse Ultra Trail) - 75km",
        "country": "Netherlands",
        "distance": "75km",
        "date": "26/07/2025",
        "url": "https://statistik.d-u-v.org/eventdetail.php?event=122225",
        "city": "Elspeet",
        "lat": 52.2910649,
        "lng": 5.7884632,
        "slug": "vut100-veluwse-ultra-trail-75km-2025"
    },