[
    {
        "name": "Bastogne - Wiltz - Bastogne",
        "country": "Belgium",
        "distance": "72km",
        "date": "29/12/2024",
        "url": "https://statistik.d-u-v.org/eventdetail.php?event=114391",
        "city": "Bastogne",
        "elevation": "13m",
        "lat": 50.0023102,
        "lng": 5.7173386
    },
    {
        "name": "The Bello Gallico Trail 50mi",
        "country": "Belgium",
        "distance": "50mi",
        "date": "15/12/2024",
        "url": "https://statistik.d-u-v.org/eventdetail.php?event=113825",
        "city": "Oud-Heverlee",
        "elevation": "1200m",
        "terrain": "trail",
        "lat": 50.8376275,
        "lng": 4.6629253,
        "elevation_points": [
            {
                "d": 0,
                "e": 100
            },
            {
                "d": 10,
                "e": 200
            },
            {
                "d": 20,
                "e": 150
            },
            {
                "d": 30,
                "e": 300
            },
            {
                "d": 40,
                "e": 250
            },
            {
                "d": 50,
                "e": 400
            },
            {
                "d": 60,
                "e": 100
            },
            {
                "d": 70,
                "e": 50
            },
            {
                "d": 80,
                "e": 100
            }
        ],
        "aid_stations": [
            15,
            30,
            45,
            60,
            75
        ]
    },
    {
        "name": "The Bello Gallico Trail 100mi",
        "country": "Belgium",
        "distance": "100mi",
        "date": "14/12/2024",
        "url": "https://statistik.d-u-v.org/eventdetail.php?event=113826",
        "city": "Oud-Heverlee",
        "elevation": "36m",
        "terrain": "trail",
        "lat": 50.8376275,
        "lng": 4.6629253,
        "elevation_points": [
            {
                "d": 0,
                "e": 100
            },
            {
                "d": 10,
                "e": 200
            },
            {
                "d": 20,
                "e": 150
            },
            {
                "d": 30,
                "e": 300
            },
            {
                "d": 40,
                "e": 250
            },
            {
                "d": 50,
                "e": 400
            },
            {
                "d": 60,
                "e": 100
            },
            {
                "d": 70,
                "e": 50
            },
            {
                "d": 80,
                "e": 100
            }
        ],
        "aid_stations": [
            15,
            30,
            45,
            60,
            75
        ]
    },
    {
        "name": "De Warmste Loop - The Warmest Run",
        "country": "Belgium",
        "distance": "8h",
        "date": "30/11/2024",
        "url": "https://statistik.d-u-v.org/eventdetail.php?event=111821",
        "city": "Wingene",
        "terrain": "road",
        "lat": 51.0601502,
        "lng": 3.3070748
    },
    {
        "name": "28ème Olne-Spa-Olne",
        "country": "Belgium",
        "distance": "71km",
        "date": "24/11/2024",
        "url": "https://statistik.d-u-v.org/eventdetail.php?event=102537",
        "city": "Olne",
        "elevation": "2296m",
        "terrain": "trail",
        "lat": 50.5901199,
        "lng": 5.7479948
    },
    {
        "name": "6 hour Winter Challenge of Hamme",
        "country": "Belgium",
        "distance": "6h",
        "date": "23/11/2024",
        "url": "https://statistik.d-u-v.org/eventdetail.php?event=111138",
        "city": "Hamme",
        "terrain": "road",
        "lat": 51.0977642,
        "lng": 4.1377229
    },
    {
        "name": "3 De Wase (Halve en Ultra) Marathon",
        "country": "Belgium",
        "distance": "63km",
        "date": "17/11/2024",
        "url": "https://statistik.d-u-v.org/eventdetail.php?event=112869",
        "city": "Sinaai",
        "elevation": "9112m",
        "terrain": "trail",
        "lat": 51.15689,
        "lng": 4.04172
    },
    {
        "name": "Grand Trail des Lacs et Châteaux Winter",
        "country": "Belgium",
        "distance": "66km",
        "date": "09/11/2024",
        "url": "https://statistik.d-u-v.org/eventdetail.php?event=112563",
        "city": "Ovifat",
        "elevation": "2600m",
        "terrain": "trail",
        "lat": 50.4663622,
        "lng": 6.107063
    },
    {
        "name": "12th Bear Trail 83 Km",
        "country": "Belgium",
        "distance": "83km",
        "date": "26/10/2024",
        "url": "https://statistik.d-u-v.org/eventdetail.php?event=111947",
        "city": "Voeren",
        "elevation": "2000m",
        "terrain": "trail",
        "lat": 50.746555,
        "lng": 5.839016
    },
    {
        "name": "12th Bear Trail 58 Km",
        "country": "Belgium",
        "distance": "58km",
        "date": "26/10/2024",
        "url": "https://statistik.d-u-v.org/eventdetail.php?event=112245",
        "city": "Voeren",
        "elevation": "1600m",
        "terrain": "trail",
        "lat": 50.746555,
        "lng": 5.839016
    },
    {
        "name": "12th Grizzly100",
        "country": "Belgium",
        "distance": "100km",
        "date": "26/10/2024",
        "url": "https://statistik.d-u-v.org/eventdetail.php?event=102106",
        "city": "s'Gravenvoeren",
        "elevation": "3000m",
        "terrain": "trail",
        "lat": 50.7588019,
        "lng": 5.7619737
    },
    {
        "name": "Trail de L'Abbaye",
        "country": "Belgium",
        "distance": "50km",
        "date": "05/10/2024",
        "url": "https://statistik.d-u-v.org/eventdetail.php?event=111548",
        "city": "Villers-la-Ville",
        "terrain": "trail",
        "lat": 50.5727285,
        "lng": 4.5342675
    },
    {
        "name": "Clash Der Titanen 110",
        "country": "Belgium",
        "distance": "115km",
        "date": "05/10/2024",
        "url": "https://statistik.d-u-v.org/eventdetail.php?event=111298",
        "city": "Wezemaal",
        "elevation": "1872m",
        "terrain": "trail",
        "lat": 50.9482598,
        "lng": 4.7544622
    },
    {
        "name": "Clash Der Titanen 60",
        "country": "Belgium",
        "distance": "61km",
        "date": "05/10/2024",
        "url": "https://statistik.d-u-v.org/eventdetail.php?event=111299",
        "city": "Wezemaal",
        "elevation": "1105m",
        "terrain": "trail",
        "lat": 50.9482598,
        "lng": 4.7544622
    },
    {
        "name": "Clash Der Titanen 160",
        "country": "Belgium",
        "distance": "162km",
        "date": "05/10/2024",
        "url": "https://statistik.d-u-v.org/eventdetail.php?event=111300",
        "city": "Wezemaal",
        "elevation": "2500m",
        "terrain": "trail",
        "lat": 50.9482598,
        "lng": 4.7544622
    },
    {
        "name": "L'Ultra by HuyForTrail",
        "country": "Belgium",
        "distance": "67km",
        "date": "22/09/2024",
        "url": "https://statistik.d-u-v.org/eventdetail.php?event=110857",
        "city": "Bas-Oha",
        "elevation": "1720m",
        "terrain": "trail",
        "lat": 50.522397,
        "lng": 5.1880583
    },
    {
        "name": "Trail des Fées",
        "country": "Belgium",
        "distance": "55km",
        "date": "21/09/2024",
        "url": "https://statistik.d-u-v.org/eventdetail.php?event=110854",
        "city": "Bertrix",
        "elevation": "2100m",
        "terrain": "trail",
        "lat": 49.8546564,
        "lng": 5.2529266
    },
    {
        "name": "Kjir ne ki were 12u",
        "country": "Belgium",
        "distance": "12h",
        "date": "07/09/2024",
        "url": "https://statistik.d-u-v.org/eventdetail.php?event=110462",
        "city": "Dentergem",
        "elevation": "19m",
        "terrain": "trail",
        "lat": 50.9642783,
        "lng": 3.4191602
    },
    {
        "name": "60 km van Schoten",
        "country": "Belgium",
        "distance": "60km",
        "date": "25/08/2024",
        "url": "https://statistik.d-u-v.org/eventdetail.php?event=129159",
        "city": "Schoten",
        "elevation": "25m",
        "terrain": "road",
        "lat": 51.2516344,
        "lng": 4.4980446
    },
    {
        "name": "13ème Trail des Fantomes 68km",
        "country": "Belgium",
        "distance": "68km",
        "date": "10/08/2024",
        "url": "https://statistik.d-u-v.org/eventdetail.php?event=102050",
        "city": "La Roche-en-Ardenne",
        "elevation": "2500m",
        "terrain": "trail",
        "lat": 50.1602833,
        "lng": 5.5627594
    },
    {
        "name": "9. Bostrails Aalter",
        "country": "Belgium",
        "distance": "47km",
        "date": "20/01/2024",
        "url": "https://statistik.d-u-v.org/eventdetail.php?event=96753",
        "city": "Aalter",
        "terrain": "trail",
        "lat": 51.083894,
        "lng": 3.4485192
    },
    {
        "name": "Houffatrail 65km",
        "country": "Belgium",
        "distance": "65km",
        "date": "21/01/2024",
        "url": "https://statistik.d-u-v.org/eventdetail.php?event=104631",
        "city": "Houffalize",
        "elevation": "1700m",
        "terrain": "trail",
        "lat": 50.1323761,
        "lng": 5.7886928
    },
    {
        "name": "Houffatrail 50km",
        "country": "Belgium",
        "distance": "50km",
        "date": "21/01/2024",
        "url": "https://statistik.d-u-v.org/eventdetail.php?event=95014",
        "city": "Houffalize",
        "elevation": "1830m",
        "terrain": "trail",
        "lat": 50.1323761,
        "lng": 5.7886928
    },
    {
        "name": "Trailmarathon Het Leen",
        "country": "Belgium",
        "distance": "45km",
        "date": "10/02/2024",
        "url": "https://statistik.d-u-v.org/eventdetail.php?event=107774",
        "city": "Eeklo",
        "terrain": "trail",
        "lat": 51.1844827,
        "lng": 3.5665965
    },
    {
        "name": "Muziekbos Trail - 45 km",
        "country": "Belgium",
        "distance": "45km",
        "date": "11/02/2024",
        "url": "https://statistik.d-u-v.org/eventdetail.php?event=105148",
        "city": "Ronse",
        "elevation": "1050m",
        "terrain": "trail",
        "lat": 50.7526199,
        "lng": 3.6014477
    },
    {
        "name": "Muziekbos Trail - 64 km",
        "country": "Belgium",
        "distance": "64km",
        "date": "11/02/2024",
        "url": "https://statistik.d-u-v.org/eventdetail.php?event=104487",
        "city": "Ronse",
        "elevation": "1400m",
        "terrain": "trail",
        "lat": 50.7526199,
        "lng": 3.6014477
    },
    {
        "name": "2. Mad Elf Run",
        "country": "Belgium",
        "distance": "49km",
        "date": "17/02/2024",
        "url": "https://statistik.d-u-v.org/eventdetail.php?event=105261",
        "city": "Aywaille",
        "elevation": "1400m",
        "terrain": "trail",
        "lat": 50.4584812,
        "lng": 5.6989069
    },
    {
        "name": "3ème Trail de la Siberie - 100km",
        "country": "Belgium",
        "distance": "101km",
        "date": "24/02/2024",
        "url": "https://statistik.d-u-v.org/eventdetail.php?event=105267",
        "city": "Profondeville",
        "elevation": "3000m",
        "terrain": "trail",
        "lat": 50.3762043,
        "lng": 4.8675024
    },
    {
        "name": "3ème Trail de la Siberie - 75km",
        "country": "Belgium",
        "distance": "76km",
        "date": "24/02/2024",
        "url": "https://statistik.d-u-v.org/eventdetail.php?event=105266",
        "city": "Profondeville",
        "elevation": "2300m",
        "terrain": "trail",
        "lat": 50.3762043,
        "lng": 4.8675024
    },
    {
        "name": "3ème Trail de la Siberie - 50km",
        "country": "Belgium",
        "distance": "52km",
        "date": "24/02/2024",
        "url": "https://statistik.d-u-v.org/eventdetail.php?event=105265",
        "city": "Profondeville",
        "elevation": "1600m",
        "terrain": "trail",
        "lat": 50.3762043,
        "lng": 4.8675024
    },
    {
        "name": "LaThareé Trail  55 km",
        "country": "Belgium",
        "distance": "55km",
        "date": "16/03/2024",
        "url": "https://statistik.d-u-v.org/eventdetail.php?event=106026",
        "city": "Rettigny",
        "elevation": "2450m",
        "terrain": "trail",
        "lat": 50.1678509,
        "lng": 5.8801729
    },
    {
        "name": "LaThareé Trail  48 km",
        "country": "Belgium",
        "distance": "48km",
        "date": "16/03/2024",
        "url": "https://statistik.d-u-v.org/eventdetail.php?event=106025",
        "city": "Rettigny",
        "elevation": "2000m",
        "terrain": "trail",
        "lat": 50.1678509,
        "lng": 5.8801729
    },
    {
        "name": "Endurance Day Hamme 50 mi",
        "country": "Belgium",
        "distance": "50mi",
        "date": "17/03/2024",
        "url": "https://statistik.d-u-v.org/eventdetail.php?event=105844",
        "city": "Hamme",
        "elevation": "2022m",
        "terrain": "road",
        "lat": 51.0977642,
        "lng": 4.1377229
    },
    {
        "name": "Endurance Day Hamme 100 km",
        "country": "Belgium",
        "distance": "100km",
        "date": "17/03/2024",
        "url": "https://statistik.d-u-v.org/eventdetail.php?event=105843",
        "city": "Hamme",
        "elevation": "2022m",
        "terrain": "road",
        "lat": 51.0977642,
        "lng": 4.1377229
    },
    {
        "name": "Endurance Day Hamme 50 km",
        "country": "Belgium",
        "distance": "50km",
        "date": "17/03/2024",
        "url": "https://statistik.d-u-v.org/eventdetail.php?event=105842",
        "city": "Hamme",
        "elevation": "52m",
        "terrain": "road",
        "lat": 51.0977642,
        "lng": 4.1377229
    },
    {
        "name": "Trail des Cisterciens",
        "country": "Belgium",
        "distance": "67km",
        "date": "07/04/2024",
        "url": "https://statistik.d-u-v.org/eventdetail.php?event=106813",
        "city": "Court-St-Etienne",
        "elevation": "1500m",
        "terrain": "trail",
        "lat": 50.6443208,
        "lng": 4.5685766
    },
    {
        "name": "TDI (Trail des Idylles)",
        "country": "Belgium",
        "distance": "52.4km",
        "date": "13/04/2024",
        "url": "https://statistik.d-u-v.org/eventdetail.php?event=106814",
        "city": "Malmedy / Chodes",
        "elevation": "2300m",
        "terrain": "trail"
    },
    {
        "name": "Legends Backyard Ultra",
        "country": "Belgium",
        "distance": "53h",
        "date": "20/04/2024",
        "url": "https://statistik.d-u-v.org/eventdetail.php?event=107104",
        "city": "Kasterlee",
        "elevation": "35m",
        "terrain": "road",
        "lat": 51.2407915,
        "lng": 4.967812
    },
    {
        "name": "L.A.T Legends Ardennes Trail 60km",
        "country": "Belgium",
        "distance": "62km",
        "date": "27/04/2024",
        "url": "https://statistik.d-u-v.org/eventdetail.php?event=107577",
        "city": "Lamormenil",
        "elevation": "1800m",
        "terrain": "trail",
        "lat": 50.2542118,
        "lng": 5.6378252
    },
    {
        "name": "L.A.T Legends Ardennes Trail 100km",
        "country": "Belgium",
        "distance": "107km",
        "date": "27/04/2024",
        "url": "https://statistik.d-u-v.org/eventdetail.php?event=107576",
        "city": "Nisramont",
        "elevation": "3200m",
        "terrain": "trail",
        "lat": 50.1353549,
        "lng": 5.6471185
    },
    {
        "name": "Until the End - Backyard Ultra",
        "country": "Belgium",
        "distance": "32h",
        "date": "04/05/2024",
        "url": "https://statistik.d-u-v.org/eventdetail.php?event=107756",
        "city": "Spa",
        "elevation": "190m",
        "lat": 50.4920654,
        "lng": 5.8627569
    },
    {
        "name": "Trail de Chimay",
        "country": "Belgium",
        "distance": "50km",
        "date": "11/05/2024",
        "url": "https://statistik.d-u-v.org/eventdetail.php?event=102040",
        "city": "Bourlers",
        "elevation": "1590m",
        "terrain": "trail",
        "lat": 50.027359,
        "lng": 4.341293
    },
    {
        "name": "6 uur Challenge van Hamme",
        "country": "Belgium",
        "distance": "6h",
        "date": "11/05/2024",
        "url": "https://statistik.d-u-v.org/eventdetail.php?event=107558",
        "city": "Hamme",
        "elevation": "1421m",
        "terrain": "road",
        "lat": 51.0977642,
        "lng": 4.1377229
    },
    {
        "name": "Grand Trail des Lacs et Châteaux 85km",
        "country": "Belgium",
        "distance": "85km",
        "date": "19/05/2024",
        "url": "https://statistik.d-u-v.org/eventdetail.php?event=107940",
        "city": "Ovifat",
        "elevation": "3083m",
        "terrain": "trail",
        "lat": 50.4663622,
        "lng": 6.107063
    },
    {
        "name": "La Balade du Gendarme",
        "country": "Belgium",
        "distance": "102km",
        "date": "19/05/2024",
        "url": "https://statistik.d-u-v.org/eventdetail.php?event=107810",
        "city": "Landenne",
        "elevation": "2500m",
        "terrain": "trail",
        "lat": 50.5142495,
        "lng": 5.0646275
    },
    {
        "name": "17e Ohm Trail - Ultra",
        "country": "Belgium",
        "distance": "80km",
        "date": "02/06/2024",
        "url": "https://statistik.d-u-v.org/eventdetail.php?event=108349",
        "city": "Aywaille",
        "elevation": "3850m",
        "terrain": "trail",
        "lat": 50.4584812,
        "lng": 5.6989069
    },
    {
        "name": "17e Ohm Trail - XL",
        "country": "Belgium",
        "distance": "55km",
        "date": "02/06/2024",
        "url": "https://statistik.d-u-v.org/eventdetail.php?event=108348",
        "city": "Aywaille",
        "elevation": "2810m",
        "terrain": "trail",
        "lat": 50.4584812,
        "lng": 5.6989069
    },
    {
        "name": "1st The Longest Day 50km",
        "country": "Belgium",
        "distance": "50km",
        "date": "08/06/2024",
        "url": "https://statistik.d-u-v.org/eventdetail.php?event=102042",
        "city": "Spa",
        "elevation": "1500m",
        "terrain": "trail",
        "lat": 50.4920654,
        "lng": 5.8627569
    },
    {
        "name": "Trail Godefroy Bouillon",
        "country": "Belgium",
        "distance": "50km",
        "date": "15/06/2024",
        "url": "https://statistik.d-u-v.org/eventdetail.php?event=102044",
        "city": "Bouillon",
        "elevation": "1610m",
        "terrain": "trail",
        "lat": 49.7949836,
        "lng": 5.0672528
    },
    {
        "name": "Trail Godefroy Bouillon",
        "country": "Belgium",
        "distance": "80km",
        "date": "15/06/2024",
        "url": "https://statistik.d-u-v.org/eventdetail.php?event=108342",
        "city": "Bouillon",
        "elevation": "2540m",
        "terrain": "trail",
        "lat": 49.7949836,
        "lng": 5.0672528
    },
    {
        "name": "Trail Godefroy Bouillon",
        "country": "Belgium",
        "distance": "104km",
        "date": "15/06/2024",
        "url": "https://statistik.d-u-v.org/eventdetail.php?event=108341",
        "city": "Bouillon",
        "elevation": "3200m",
        "terrain": "trail",
        "lat": 49.7949836,
        "lng": 5.0672528
    },
    {
        "name": "Haute Ardenne Ultra Trail",
        "country": "Belgium",
        "distance": "50km",
        "date": "22/06/2024",
        "url": "https://statistik.d-u-v.org/eventdetail.php?event=110789",
        "city": "Trois-Ponts",
        "elevation": "2000m",
        "terrain": "trail",
        "lat": 50.3726812,
        "lng": 5.8702957
    },
    {
        "name": "4. Antwerp Backyard Ultra",
        "country": "Belgium",
        "distance": "46h",
        "date": "28/06/2024",
        "url": "https://statistik.d-u-v.org/eventdetail.php?event=103244",
        "city": "Schelle",
        "elevation": "21m",
        "terrain": "road",
        "lat": 51.1245635,
        "lng": 4.3361875
    },
    {
        "name": "Another One Bites the Dust",
        "country": "Belgium",
        "distance": "32h",
        "date": "28/06/2024",
        "url": "https://statistik.d-u-v.org/eventdetail.php?event=110652",
        "city": "Bierbeek",
        "terrain": "trail",
        "lat": 50.8278113,
        "lng": 4.754358
    },
    {
        "name": "Mini Medium and MegaTornado",
        "country": "Belgium",
        "distance": "100km",
        "date": "30/06/2024",
        "url": "https://statistik.d-u-v.org/eventdetail.php?event=103968",
        "city": "Silly",
        "terrain": "road",
        "lat": 50.6428391,
        "lng": 3.9423486
    },
    {
        "name": "La Chouffe Trail 70km",
        "country": "Belgium",
        "distance": "70km",
        "date": "06/07/2024",
        "url": "https://statistik.d-u-v.org/eventdetail.php?event=102049",
        "city": "Houffalize",
        "elevation": "1680m",
        "terrain": "trail",
        "lat": 50.1323761,
        "lng": 5.7886928
    },
    {
        "name": "La Chouffe Trail 51km",
        "country": "Belgium",
        "distance": "51km",
        "date": "06/07/2024",
        "url": "https://statistik.d-u-v.org/eventdetail.php?event=102048",
        "city": "Houffalize",
        "elevation": "1280m",
        "terrain": "trail",
        "lat": 50.1323761,
        "lng": 5.7886928
    },
    {
        "name": "15ème Festival Trail Semois",
        "country": "Belgium",
        "distance": "70km",
        "date": "06/07/2024",
        "url": "https://statistik.d-u-v.org/eventdetail.php?event=99381",
        "city": "Herbeumont",
        "elevation": "2500m",
        "terrain": "trail",
        "lat": 49.7815364,
        "lng": 5.2377736
    },
    {
        "name": "13th 6 uur van Aalter",
        "country": "Belgium",
        "distance": "6h",
        "date": "14/07/2024",
        "url": "https://statistik.d-u-v.org/eventdetail.php?event=109315",
        "city": "Aalter",
        "elevation": "1000m",
        "terrain": "road",
        "lat": 51.083894,
        "lng": 3.4485192
    },
    {
        "name": "13ème Trail des Fantomes 48km",
        "country": "Belgium",
        "distance": "48km",
        "date": "10/08/2024",
        "url": "https://statistik.d-u-v.org/eventdetail.php?event=109804",
        "city": "La Roche-en-Ardenne",
        "elevation": "2266m",
        "terrain": "trail",
        "lat": 50.1602833,
        "lng": 5.5627594
    },
    {
        "name": "Bastogne - Wiltz - Bastogne 70km",
        "country": "Belgium",
        "distance": "70km",
        "date": "22/04/2026",
        "url": "https://www.trailrun.be/bastogne-wiltz-bastogne/",
        "city": "Bastogne",
        "elevation": "3111m",
        "terrain": "trail",
        "utmb_index": true,
        "lat": 50.0023102,
        "lng": 5.7173386
    },
    {
        "name": "5° Grand Trail des Lacs et Châteaux Winter",
        "country": "Belgium",
        "distance": "66km",
        "date": "07/11/2026",
        "url": "https://grandtrail.be/courses/gt65/",
        "city": "Ovifat",
        "terrain": "trail",
        "utmb_index": true,
        "lat": 50.4663622,
        "lng": 6.107063
    },
    {
        "name": "Trail de la Soupe",
        "country": "Belgium",
        "distance": "100 km",
        "date": "22/04/2026",
        "url": "https://www.trailrun.be/fr/trail-de-la-soupe/#efaq-45km-dimanche-1730m-d",
        "city": "La-Roche-en-Ardenne",
        "terrain": "trail",
        "utmb_index": true,
        "lat": 50.1815604,
        "lng": 5.5759476
    },
    {
        "name": "7. Trail du BW - 84km",
        "country": "Belgium",
        "distance": "85KM",
        "date": "06/12/2025",
        "url": "https://www.traildubw.be/",
        "city": "Grez-Doiceau",
        "elevation": "1560m",
        "terrain": "trail",
        "lat": 50.7386182,
        "lng": 4.6962324
    },
    {
        "name": "Meerdaalwoud Trail",
        "country": "Belgium",
        "distance": "50km",
        "date": "20/12/2025",
        "url": "https://www.trailrun.be/meerdaalwoud-trail/",
        "city": "Bierbeek",
        "elevation": "750m",
        "terrain": "trail",
        "utmb_index": true,
        "lat": 50.8278113,
        "lng": 4.754358
    },
    {
        "name": "De Warmste Loop - The Warmest Run",
        "country": "Belgium",
        "distance": "8h",
        "date": "30/11/2025",
        "url": "https://www.dewarmsteloop.be",
        "city": "Wingene",
        "lat": 51.0601502,
        "lng": 3.3070748
    },
    {
        "name": "4 De Wase (Ultra) Marathon",
        "country": "Belgium",
        "distance": "58 km",
        "date": "26/10/2025",
        "url": "https://www.dewasemarathon.run",
        "city": "Sinaai",
        "lat": 51.15689,
        "lng": 4.04172
    },
    {
        "name": "Bastogne - Wiltz - Bastogne 50km",
        "country": "Belgium",
        "distance": "100 KM",
        "date": "22/04/2026",
        "url": "https://www.trailrun.be/bastogne-wiltz-bastogne/",
        "city": "Bastogne",
        "elevation": "3111m",
        "terrain": "trail",
        "utmb_index": true,
        "lat": 50.0023102,
        "lng": 5.7173386
    },
    {
        "name": "7. Trail du BW - 62km",
        "country": "Belgium",
        "distance": "85KM",
        "date": "06/12/2025",
        "url": "https://www.traildubw.be/",
        "city": "Grez-Doiceau",
        "elevation": "1560m",
        "terrain": "trail",
        "lat": 50.7386182,
        "lng": 4.6962324
    },
    {
        "name": "8. Grizzly100",
        "country": "Belgium",
        "distance": "100km",
        "date": "24/10/2026",
        "url": "https://www.bearsports.nl/bear-trail/",
        "city": "s'Gravenvoeren",
        "elevation": "2827m",
        "terrain": "trail",
        "utmb_index": true,
        "lat": 50.7588019,
        "lng": 5.7619737
    },
    {
        "name": "13th Bear Trail 58 Km",
        "country": "Belgium",
        "distance": "100 Km",
        "date": "24/10/2026",
        "url": "https://www.bearsports.nl/bear-trail/",
        "city": "Voeren",
        "elevation": "2827m",
        "terrain": "trail",
        "utmb_index": true,
        "lat": 50.746555,
        "lng": 5.839016
    },
    {
        "name": "29ème Olne-Spa-Olne",
        "country": "Belgium",
        "distance": "71 km",
        "date": "23/11/2025",
        "url": "https://www.courirpourleplaisir.be/olne-spa-olne-2/",
        "city": "Olne",
        "elevation": "2296m",
        "terrain": "trail",
        "utmb_index": true,
        "lat": 50.5901199,
        "lng": 5.7479948
    },
    {
        "name": "Houffatrail 63km",
        "country": "Belgium",
        "distance": "63km",
        "date": "25/01/2025",
        "url": "https://statistik.d-u-v.org/eventdetail.php?event=116312",
        "city": "Houffalize",
        "elevation": "1700m",
        "terrain": "trail",
        "lat": 50.1323761,
        "lng": 5.7886928
    },
    {
        "name": "Houffatrail 50km",
        "country": "Belgium",
        "distance": "50km",
        "date": "25/01/2025",
        "url": "https://statistik.d-u-v.org/eventdetail.php?event=116311",
        "city": "Houffalize",
        "elevation": "1830m",
        "terrain": "trail",
        "lat": 50.1323761,
        "lng": 5.7886928
    },
    {
        "name": "Trailmarathon Het Leen",
        "country": "Belgium",
        "distance": "45km",
        "date": "02/02/2025",
        "url": "https://statistik.d-u-v.org/eventdetail.php?event=107775",
        "city": "Eeklo",
        "terrain": "trail",
        "lat": 51.1844827,
        "lng": 3.5665965
    },
    {
        "name": "Muziekbos Trail - 45 km",
        "country": "Belgium",
        "distance": "45km",
        "date": "09/02/2025",
        "url": "https://statistik.d-u-v.org/eventdetail.php?event=117456",
        "city": "Ronse",
        "elevation": "1050m",
        "terrain": "trail",
        "lat": 50.7526199,
        "lng": 3.6014477
    },
    {
        "name": "Muziekbos Trail - 64 km",
        "country": "Belgium",
        "distance": "64km",
        "date": "09/02/2025",
        "url": "https://statistik.d-u-v.org/eventdetail.php?event=117455",
        "city": "Ronse",
        "elevation": "1400m",
        "terrain": "trail",
        "lat": 50.7526199,
        "lng": 3.6014477
    },
    {
        "name": "La Magnetoise",
        "country": "Belgium",
        "distance": "59km",
        "date": "16/02/2025",
        "url": "https://statistik.d-u-v.org/eventdetail.php?event=116485",
        "city": "Magnee",
        "elevation": "3250m",
        "terrain": "trail",
        "lat": 50.6028765,
        "lng": 5.6811009
    },
    {
        "name": "4ème Trail de la Siberie - 125km",
        "country": "Belgium",
        "distance": "125km",
        "date": "22/02/2025",
        "url": "https://statistik.d-u-v.org/eventdetail.php?event=116793",
        "city": "Profondeville",
        "elevation": "3860m",
        "terrain": "trail",
        "lat": 50.3762043,
        "lng": 4.8675024
    },
    {
        "name": "4ème Trail de la Siberie - 100km",
        "country": "Belgium",
        "distance": "101km",
        "date": "22/02/2025",
        "url": "https://statistik.d-u-v.org/eventdetail.php?event=116748",
        "city": "Profondeville",
        "elevation": "3000m",
        "terrain": "trail",
        "lat": 50.3762043,
        "lng": 4.8675024
    },
    {
        "name": "4ème Trail de la Siberie - 75km",
        "country": "Belgium",
        "distance": "76km",
        "date": "22/02/2025",
        "url": "https://statistik.d-u-v.org/eventdetail.php?event=116747",
        "city": "Profondeville",
        "elevation": "2300m",
        "terrain": "trail",
        "lat": 50.3762043,
        "lng": 4.8675024
    },
    {
        "name": "4ème Trail de la Siberie - 50km",
        "country": "Belgium",
        "distance": "52km",
        "date": "22/02/2025",
        "url": "https://statistik.d-u-v.org/eventdetail.php?event=116746",
        "city": "Profondeville",
        "elevation": "1600m",
        "terrain": "trail",
        "lat": 50.3762043,
        "lng": 4.8675024
    },
    {
        "name": "LaThareé Trail  56 km",
        "country": "Belgium",
        "distance": "56km",
        "date": "15/03/2025",
        "url": "https://statistik.d-u-v.org/eventdetail.php?event=119282",
        "city": "Rettigny",
        "elevation": "2500m",
        "terrain": "trail",
        "lat": 50.1678509,
        "lng": 5.8801729
    },
    {
        "name": "LaThareé Trail  49 km",
        "country": "Belgium",
        "distance": "49km",
        "date": "15/03/2025",
        "url": "https://statistik.d-u-v.org/eventdetail.php?event=119281",
        "city": "Rettigny",
        "elevation": "2100m",
        "terrain": "trail",
        "lat": 50.1678509,
        "lng": 5.8801729
    },
    {
        "name": "Dplus draait door - 6h",
        "country": "Belgium",
        "distance": "6h",
        "date": "16/03/2025",
        "url": "https://statistik.d-u-v.org/eventdetail.php?event=124396",
        "city": "Kortenberg",
        "elevation": "3070m",
        "terrain": "road",
        "lat": 50.8952922,
        "lng": 4.5656007
    },
    {
        "name": "Trail des Sangliers",
        "country": "Belgium",
        "distance": "75km",
        "date": "22/03/2025",
        "url": "https://statistik.d-u-v.org/eventdetail.php?event=119976",
        "city": "La Roche-En-Ardenne",
        "elevation": "2638m",
        "terrain": "trail",
        "lat": 50.1602833,
        "lng": 5.5627594
    },
    {
        "name": "GR Provincie Trail Luxemburg",
        "country": "Belgium",
        "distance": "46.3km",
        "date": "23/03/2025",
        "url": "https://statistik.d-u-v.org/eventdetail.php?event=117905",
        "city": "Messancy",
        "elevation": "474m",
        "terrain": "trail",
        "lat": 49.5949862,
        "lng": 5.8145736
    },
    {
        "name": "TDI (Trail des Idylles)",
        "country": "Belgium",
        "distance": "57km",
        "date": "12/04/2025",
        "url": "https://statistik.d-u-v.org/eventdetail.php?event=118348",
        "city": "Malmedy / Chodes",
        "elevation": "2850m",
        "terrain": "trail"
    },
    {
        "name": "GR Provincie Trail West-Vlaanderen",
        "country": "Belgium",
        "distance": "50.1km",
        "date": "19/04/2025",
        "url": "https://statistik.d-u-v.org/eventdetail.php?event=121424",
        "city": "Blankenberge",
        "elevation": "11m",
        "terrain": "trail",
        "lat": 51.3112589,
        "lng": 3.1323429
    },
    {
        "name": "Trail des Cisterciens - 100km",
        "country": "Belgium",
        "distance": "100km",
        "date": "20/04/2025",
        "url": "https://statistik.d-u-v.org/eventdetail.php?event=117549",
        "city": "Court-St-Etienne",
        "elevation": "2400m",
        "terrain": "trail",
        "lat": 50.6443208,
        "lng": 4.5685766
    },
    {
        "name": "Trail des Cisterciens - 65km",
        "country": "Belgium",
        "distance": "65km",
        "date": "20/04/2025",
        "url": "https://statistik.d-u-v.org/eventdetail.php?event=117548",
        "city": "Court-St-Etienne",
        "elevation": "1500m",
        "terrain": "trail",
        "lat": 50.6443208,
        "lng": 4.5685766
    },
    {
        "name": "L.A.T Legends Ardennes Trail 60km",
        "country": "Belgium",
        "distance": "62km",
        "date": "26/04/2025",
        "url": "https://statistik.d-u-v.org/eventdetail.php?event=117133",
        "city": "Lamormenil",
        "elevation": "1800m",
        "terrain": "trail",
        "lat": 50.2542118,
        "lng": 5.6378252
    },
    {
        "name": "L.A.T Legends Ardennes Trail 100km",
        "country": "Belgium",
        "distance": "107km",
        "date": "26/04/2025",
        "url": "https://statistik.d-u-v.org/eventdetail.php?event=117132",
        "city": "Nisramont",
        "elevation": "3200m",
        "terrain": "trail",
        "lat": 50.1353549,
        "lng": 5.6471185
    },
    {
        "name": "5 Legends Backyard Ultra",
        "country": "Belgium",
        "distance": "116h",
        "date": "26/04/2025",
        "url": "https://statistik.d-u-v.org/eventdetail.php?event=117526",
        "city": "Retie",
        "elevation": "35m",
        "terrain": "road",
        "lat": 51.2675862,
        "lng": 5.0843883
    },
    {
        "name": "Belgian Front Memorial Trail",
        "country": "Belgium",
        "distance": "103km",
        "date": "03/05/2025",
        "url": "https://statistik.d-u-v.org/eventdetail.php?event=114655",
        "city": "Messines",
        "elevation": "79m",
        "terrain": "trail",
        "lat": 50.759827,
        "lng": 2.8998324
    },
    {
        "name": "Until the End - Backyard Ultra",
        "country": "Belgium",
        "distance": "29h",
        "date": "03/05/2025",
        "url": "https://statistik.d-u-v.org/eventdetail.php?event=121246",
        "city": "Spa",
        "elevation": "190m",
        "lat": 50.4920654,
        "lng": 5.8627569
    },
    {
        "name": "Trail de Chimay",
        "country": "Belgium",
        "distance": "50km",
        "date": "10/05/2025",
        "url": "https://statistik.d-u-v.org/eventdetail.php?event=119300",
        "city": "Bourlers",
        "elevation": "1590m",
        "terrain": "trail",
        "lat": 50.027359,
        "lng": 4.341293
    },
    {
        "name": "15° Grand Trail des Lacs et Châteaux 85km",
        "country": "Belgium",
        "distance": "85km",
        "date": "17/05/2025",
        "url": "https://statistik.d-u-v.org/eventdetail.php?event=107952",
        "city": "Ovifat",
        "elevation": "3083m",
        "terrain": "trail",
        "utmb_index": true,
        "lat": 50.4663622,
        "lng": 6.107063
    },
    {
        "name": "R24u Ultraloop - 6h",
        "country": "Belgium",
        "distance": "6h",
        "date": "24/05/2025",
        "url": "https://statistik.d-u-v.org/eventdetail.php?event=118829",
        "city": "Mechelen",
        "elevation": "800m",
        "terrain": "road",
        "lat": 51.0281381,
        "lng": 4.4803453
    },
    {
        "name": "R24u Ultraloop - 3h",
        "country": "Belgium",
        "distance": "3h",
        "date": "25/05/2025",
        "url": "https://statistik.d-u-v.org/eventdetail.php?event=118830",
        "city": "Mechelen",
        "elevation": "800m",
        "terrain": "road",
        "lat": 51.0281381,
        "lng": 4.4803453
    },
    {
        "name": "Canceled: Endurance Day Hamme 100 km (BEL)",
        "country": "Belgium",
        "distance": "100km",
        "date": "01.06.2025",
        "url": "https://statistik.d-u-v.org/eventdetail.php?event=111093",
        "city": "Hamme",
        "lat": 51.0977642,
        "lng": 4.1377229
    },
    {
        "name": "Canceled: Endurance Day Hamme 50 km (BEL)",
        "country": "Belgium",
        "distance": "50km",
        "date": "01.06.2025",
        "url": "https://statistik.d-u-v.org/eventdetail.php?event=111086",
        "city": "Hamme",
        "lat": 51.0977642,
        "lng": 4.1377229
    },
    {
        "name": "18e Ohm Trail - Ultra",
        "country": "Belgium",
        "distance": "80km",
        "date": "01.06.2025",
        "url": "https://statistik.d-u-v.org/eventdetail.php?event=108352",
        "city": "Aywaille",
        "lat": 50.4584812,
        "lng": 5.6989069
    },
    {
        "name": "18e Ohm Trail - XL",
        "country": "Belgium",
        "distance": "55km",
        "date": "01.06.2025",
        "url": "https://statistik.d-u-v.org/eventdetail.php?event=108351",
        "city": "Aywaille",
        "lat": 50.4584812,
        "lng": 5.6989069
    },
    {
        "name": "7th The Longest Day 50km",
        "country": "Belgium",
        "distance": "52km",
        "date": "07.06.2025",
        "url": "https://statistik.d-u-v.org/eventdetail.php?event=121261",
        "city": "Spa",
        "lat": 50.4920654,
        "lng": 5.8627569
    },
    {
        "name": "25. Les Clochards Célestes",
        "country": "Belgium",
        "distance": "101km",
        "date": "08.06.2025",
        "url": "https://statistik.d-u-v.org/eventdetail.php?event=121245",
        "city": "Pepinster",
        "lat": 50.5710311,
        "lng": 5.7978592
    },
    {
        "name": "25. Trail Godefroy Bouillon",
        "country": "Belgium",
        "distance": "53km",
        "date": "14.06.2025",
        "url": "https://statistik.d-u-v.org/eventdetail.php?event=121244",
        "city": "Bouillon",
        "lat": 49.7949836,
        "lng": 5.0672528
    },
    {
        "name": "25. Trail Godefroy Bouillon",
        "country": "Belgium",
        "distance": "100km",
        "date": "14.06.2025",
        "url": "https://statistik.d-u-v.org/eventdetail.php?event=121243",
        "city": "Bouillon",
        "lat": 49.7949836,
        "lng": 5.0672528
    },
    {
        "name": "25. Trail Godefroy Bouillon",
        "country": "Belgium",
        "distance": "75km",
        "date": "14.06.2025",
        "url": "https://statistik.d-u-v.org/eventdetail.php?event=121242",
        "city": "Bouillon",
        "lat": 49.7949836,
        "lng": 5.0672528
    },
    {
        "name": "5. Antwerp Backyard Ultra",
        "country": "Belgium",
        "distance": "32h",
        "date": "27.06.2025",
        "url": "https://statistik.d-u-v.org/eventdetail.php?event=113217",
        "city": "Schelle",
        "lat": 51.1245635,
        "lng": 4.3361875
    },
    {
        "name": "L'assaut du Maquisard",
        "country": "Belgium",
        "distance": "45km",
        "date": "28.06.2025",
        "url": "https://statistik.d-u-v.org/eventdetail.php?event=120301",
        "city": "Thieux"
    },
    {
        "name": "Canceled: Mini and MegaTornado (BEL)",
        "country": "Belgium",
        "distance": "100km",
        "date": "29.06.2025",
        "url": "https://statistik.d-u-v.org/eventdetail.php?event=108736",
        "city": "Silly",
        "lat": 50.6428391,
        "lng": 3.9423486
    },
    {
        "name": "Another One Bites the Dust",
        "country": "Belgium",
        "distance": "32h",
        "date": "04.07.2025",
        "url": "https://statistik.d-u-v.org/eventdetail.php?event=117520",
        "city": "Bierbeek",
        "lat": 50.8278113,
        "lng": 4.754358
    },
    {
        "name": "17ème Festival Trail Semois",
        "country": "Belgium",
        "distance": "49km",
        "date": "05.07.2025",
        "url": "https://statistik.d-u-v.org/eventdetail.php?event=120431",
        "city": "Herbeumont",
        "lat": 49.7815364,
        "lng": 5.2377736
    },
    {
        "name": "Ultra Tour de Liège",
        "country": "Belgium",
        "distance": "67km",
        "date": "05.07.2025",
        "url": "https://statistik.d-u-v.org/eventdetail.php?event=117861",
        "city": "Lüttich",
        "lat": 50.6450944,
        "lng": 5.5736112
    },
    {
        "name": "17ème Festival Trail Semois",
        "country": "Belgium",
        "distance": "70km",
        "date": "05.07.2025",
        "url": "https://statistik.d-u-v.org/eventdetail.php?event=116809",
        "city": "Herbeumont",
        "lat": 49.7815364,
        "lng": 5.2377736
    },
    {
        "name": "8ème La Chouffe Trail 80km",
        "country": "Belgium",
        "distance": "80km",
        "date": "05.07.2025",
        "url": "https://statistik.d-u-v.org/eventdetail.php?event=121399",
        "city": "Houffalize",
        "lat": 50.1323761,
        "lng": 5.7886928
    },
    {
        "name": "8ème La Chouffe Trail 56km",
        "country": "Belgium",
        "distance": "56km",
        "date": "05.07.2025",
        "url": "https://statistik.d-u-v.org/eventdetail.php?event=121398",
        "city": "Houffalize",
        "lat": 50.1323761,
        "lng": 5.7886928
    },
    {
        "name": "GR Provincie Trail Limburg",
        "country": "Belgium",
        "distance": "46.3km",
        "date": "06.07.2025",
        "url": "https://statistik.d-u-v.org/eventdetail.php?event=121423",
        "city": "Teuven",
        "lat": 50.7514715,
        "lng": 5.8743087
    },
    {
        "name": "14° 6 uur van Aalter",
        "country": "Belgium",
        "distance": "6h",
        "date": "20.07.2025",
        "url": "https://statistik.d-u-v.org/eventdetail.php?event=116283",
        "city": "Aalter",
        "lat": 51.083894,
        "lng": 3.4485192
    },
    {
        "name": "Ultra Trail Haute Ardenne - Jour 1 100 km",
        "country": "Belgium",
        "distance": "100km",
        "date": "02.08.2025",
        "url": "https://statistik.d-u-v.org/eventdetail.php?event=121773",
        "city": "Waimes (Signal de Botrange)"
    },
    {
        "name": "Ultra Trail Haute Ardenne - Jour 1 70 km",
        "country": "Belgium",
        "distance": "70km",
        "date": "02.08.2025",
        "url": "https://statistik.d-u-v.org/eventdetail.php?event=121772",
        "city": "Signal de Botrange"
    },
    {
        "name": "Ultra Trail Haute Ardenne - Jour 1 50 km",
        "country": "Belgium",
        "distance": "50km",
        "date": "02.08.2025",
        "url": "https://statistik.d-u-v.org/eventdetail.php?event=121771",
        "city": "Malmedy",
        "lat": 50.4265348,
        "lng": 6.0276059
    },
    {
        "name": "Ultra Trail Haute Ardenne - Jour 2 - 60 km",
        "country": "Belgium",
        "distance": "60km",
        "date": "03.08.2025",
        "url": "https://statistik.d-u-v.org/eventdetail.php?event=121774",
        "city": "Station de la Baraque de Fraiture"
    },
    {
        "name": "14ème Trail des Fantomes 73km",
        "country": "Belgium",
        "distance": "73km",
        "date": "09.08.2025",
        "url": "https://statistik.d-u-v.org/eventdetail.php?event=121135",
        "city": "Nisramont",
        "lat": 50.1353549,
        "lng": 5.6471185
    },
    {
        "name": "14ème Trail des Fantomes 55km",
        "country": "Belgium",
        "distance": "55km",
        "date": "09.08.2025",
        "url": "https://statistik.d-u-v.org/eventdetail.php?event=121134",
        "city": "Nisramont",
        "lat": 50.1353549,
        "lng": 5.6471185
    },
    {
        "name": "Transeuropalauf 2025 15. Etappe Zutendaal - Bekkevoort",
        "country": "Belgium",
        "distance": "km58",
        "date": "17.08.2025",
        "url": "https://statistik.d-u-v.org/eventdetail.php?event=120149",
        "city": "Zutendaal",
        "lat": 50.9318992,
        "lng": 5.5725548
    },
    {
        "name": "Transeuropalauf 2025 16. Etappe Bekkevoort - Eghezee",
        "country": "Belgium",
        "distance": "50km",
        "date": "18.08.2025",
        "url": "https://statistik.d-u-v.org/eventdetail.php?event=120155",
        "city": "Bekkevoort",
        "lat": 50.9312464,
        "lng": 4.9954667
    },
    {
        "name": "Transeuropalauf 2025 17. Etappe Eghezee - Givet",
        "country": "Belgium",
        "distance": "72km",
        "date": "19.08.2025",
        "url": "https://statistik.d-u-v.org/eventdetail.php?event=120156",
        "city": "Eghezee",
        "lat": 50.591679,
        "lng": 4.9065999
    },
    {
        "name": "Transeuropalauf 2025 19. Etappe Libramont-Chevigny - Simmern",
        "country": "Belgium",
        "distance": "66km",
        "date": "21.08.2025",
        "url": "https://statistik.d-u-v.org/eventdetail.php?event=120158",
        "city": "Libramont-Chevigny",
        "lat": 49.94991,
        "lng": 5.4370892
    },
    {
        "name": "7. One More Loop",
        "country": "Belgium",
        "distance": "34h",
        "date": "05.09.2025",
        "url": "https://statistik.d-u-v.org/eventdetail.php?event=121255",
        "city": "Geraardsbergen",
        "lat": 50.7715779,
        "lng": 3.8827287
    },
    {
        "name": "3. Europa Trail Brussels 52km",
        "country": "Belgium",
        "distance": "52km",
        "date": "06.09.2025",
        "url": "https://statistik.d-u-v.org/eventdetail.php?event=121249",
        "city": "Uccle",
        "lat": 50.8035441,
        "lng": 4.3338445
    },
    {
        "name": "Europa Trail Brussels 80km",
        "country": "Belgium",
        "distance": "80km",
        "date": "06.09.2025",
        "url": "https://statistik.d-u-v.org/eventdetail.php?event=121248",
        "city": "Uccle",
        "lat": 50.8035441,
        "lng": 4.3338445
    },
    {
        "name": "Canceled: 6 uur Challenge van Hamme (BEL)",
        "country": "Belgium",
        "distance": "6h",
        "date": "07.09.2025",
        "url": "https://statistik.d-u-v.org/eventdetail.php?event=111087",
        "city": "Hamme",
        "lat": 51.0977642,
        "lng": 4.1377229
    },
    {
        "name": "11. Trail des Fées",
        "country": "Belgium",
        "distance": "55km",
        "date": "20.09.2025",
        "url": "https://statistik.d-u-v.org/eventdetail.php?event=121593",
        "city": "Bertrix",
        "lat": 49.8546564,
        "lng": 5.2529266
    },
    {
        "name": "4. L'Ultratrail by HuyForTrail",
        "country": "Belgium",
        "distance": "50km",
        "date": "21.09.2025",
        "url": "https://statistik.d-u-v.org/eventdetail.php?event=121580",
        "city": "Andenne",
        "lat": 50.4893981,
        "lng": 5.0965468
    },
    {
        "name": "Trail de L'Abbaye",
        "country": "Belgium",
        "distance": "50km",
        "date": "04.10.2025",
        "url": "https://statistik.d-u-v.org/eventdetail.php?event=121581",
        "city": "Villers-la-Ville",
        "lat": 50.5727285,
        "lng": 4.5342675
    },
    {
        "name": "Infinity Trail - Ultra Trail",
        "country": "Belgium",
        "distance": "70km",
        "date": "04.10.2025",
        "url": "https://statistik.d-u-v.org/eventdetail.php?event=121256",
        "city": "Vielsalm",
        "lat": 50.2842154,
        "lng": 5.9162783
    },
    {
        "name": "GR Provincie Trail Henegouwen",
        "country": "Belgium",
        "distance": "45km",
        "date": "05.10.2025",
        "url": "https://statistik.d-u-v.org/eventdetail.php?event=123096",
        "city": "Erbisoeul",
        "lat": 50.5155495,
        "lng": 3.8961158
    },
    {
        "name": "Clash Der Titanen 200",
        "country": "Belgium",
        "distance": "203km",
        "date": "10.10.2025",
        "url": "https://statistik.d-u-v.org/eventdetail.php?event=121586",
        "city": "Wezemaal",
        "lat": 50.9482598,
        "lng": 4.7544622
    },
    {
        "name": "Clash Der Titanen 90",
        "country": "Belgium",
        "distance": "93km",
        "date": "11.10.2025",
        "url": "https://statistik.d-u-v.org/eventdetail.php?event=121585",
        "city": "Wezemaal",
        "lat": 50.9482598,
        "lng": 4.7544622
    },
    {
        "name": "Clash Der Titanen 160",
        "country": "Belgium",
        "distance": "165km",
        "date": "11.10.2025",
        "url": "https://statistik.d-u-v.org/eventdetail.php?event=121584",
        "city": "Wezemaal",
        "lat": 50.9482598,
        "lng": 4.7544622
    },
    {
        "name": "Clash Der Titanen 120",
        "country": "Belgium",
        "distance": "123km",
        "date": "11.10.2025",
        "url": "https://statistik.d-u-v.org/eventdetail.php?event=121583",
        "city": "Wezemaal",
        "lat": 50.9482598,
        "lng": 4.7544622
    },
    {
        "name": "Clash Der Titanen 60",
        "country": "Belgium",
        "distance": "64km",
        "date": "11.10.2025",
        "url": "https://statistik.d-u-v.org/eventdetail.php?event=121582",
        "city": "Wezemaal",
        "lat": 50.9482598,
        "lng": 4.7544622
    },
    {
        "name": "8. Bear Trail 83 Km",
        "country": "Belgium",
        "distance": "83km",
        "date": "25.10.2025",
        "url": "https://statistik.d-u-v.org/eventdetail.php?event=121596",
        "city": "Voeren",
        "lat": 50.746555,
        "lng": 5.839016
    },
    {
        "name": "Meerdaalwoud Trail",
        "country": "Belgium",
        "distance": "50km",
        "date": "22/04/2026",
        "url": "https://www.trailrun.be/meerdaalwoud-trail/",
        "city": "Bierbeek",
        "elevation": "750m",
        "terrain": "trail",
        "utmb_index": true,
        "lat": 50.8278113,
        "lng": 4.754358
    },
    {
        "name": "Ultra Trail Haute Ardenne - Jour 2 - 57 km",
        "country": "Belgium",
        "distance": "60KM",
        "date": "02.08.2026",
        "url": "https://www.utha.be/57km",
        "city": "Station de la Baraque de Fraiture",
        "elevation": "1800m",
        "terrain": "trail"
    },
    {
        "name": "Trail de la Soupe",
        "country": "Belgium",
        "distance": "100 km",
        "date": "29/11/2026",
        "url": "https://www.trailrun.be/fr/trail-de-la-soupe/#efaq-45km-dimanche-1730m-d",
        "city": "La-Roche-en-Ardenne",
        "terrain": "trail",
        "utmb_index": true,
        "lat": 50.1815604,
        "lng": 5.5759476
    },
    {
        "name": "Ultra Trail Haute Ardenne - Jour 1 70 km",
        "country": "Belgium",
        "distance": "70KM",
        "date": "01.08.2026",
        "url": "https://www.utha.be/70km-d1",
        "city": "Signal de Botrange",
        "elevation": "2100m",
        "terrain": "trail"
    },
    {
        "name": "Ultra Trail Haute Ardenne - Jour 1 50 km",
        "country": "Belgium",
        "distance": "60KM",
        "date": "01.08.2026",
        "url": "https://www.utha.be/50km-d1",
        "city": "Malmedy",
        "elevation": "2000m",
        "terrain": "trail",
        "lat": 50.4265348,
        "lng": 6.0276059
    },
    {
        "name": "De Warmste Loop - The Warmest Run",
        "country": "Belgium",
        "distance": "8h",
        "date": "29/11/2026",
        "url": "https://www.dewarmsteloop.be",
        "city": "Wingene",
        "lat": 51.0601502,
        "lng": 3.3070748
    },
    {
        "name": "6. Antwerp Backyard Ultra",
        "country": "Belgium",
        "distance": "706km",
        "date": "19/06/2026",
        "url": "http://www.antwerpbackyardultra.be",
        "city": "Schelle",
        "lat": 51.1245635,
        "lng": 4.3361875
    },
    {
        "name": "Ultra Trail Haute Ardenne - Jour 1 100 km",
        "country": "Belgium",
        "distance": "100KM",
        "date": "01.08.2026",
        "url": "https://www.utha.be/100km-d1",
        "city": "Signal de Botrange",
        "elevation": "3300m",
        "terrain": "trail"
    },
    {
        "name": "26. Trail Godefroy Bouillon TGB 50",
        "country": "Belgium",
        "distance": "100 KM",
        "date": "06/06/2026",
        "url": "https://www.trailrun.be/trail-godefroy-bouillon/",
        "city": "Bouillon",
        "terrain": "trail",
        "utmb_index": true,
        "lat": 49.7949836,
        "lng": 5.0672528
    },
    {
        "name": "8th The Longest Day 50km",
        "country": "Belgium",
        "distance": "50km",
        "date": "20/06/2026",
        "url": "https://www.passionforsports.eu/nl-longestday",
        "city": "Spa",
        "terrain": "trail",
        "lat": 50.4920654,
        "lng": 5.8627569
    },
    {
        "name": "26. Trail Godefroy Bouillon TGB 75",
        "country": "Belgium",
        "distance": "75km",
        "date": "06.06.2026",
        "url": "https://www.trailrun.be/trail-godefroy-bouillon/",
        "city": "Bouillon",
        "lat": 49.7949836,
        "lng": 5.0672528
    },
    {
        "name": "Another One Bites the Dust",
        "country": "Belgium",
        "distance": "100 km",
        "date": "03.07.2026",
        "url": "http://www.anotheronebitesthedust.be",
        "city": "Bierbeek",
        "terrain": "trail",
        "lat": 50.8278113,
        "lng": 4.754358
    },
    {
        "name": "L.A.T Legends Ardennes Trail 100km",
        "country": "Belgium",
        "distance": "00 Km",
        "date": "02/05/2026",
        "url": "https://ultratiming.ledossard.com/inscription/index.php?id=3051",
        "city": "Nisramont",
        "terrain": "trail",
        "lat": 50.1353549,
        "lng": 5.6471185
    },
    {
        "name": "Belgian Front Memorial Trail",
        "country": "Belgium",
        "distance": "101km",
        "date": "02.05.2026",
        "url": "http://belgianfrontmemorialtrail.be",
        "city": "Mesen",
        "lat": 50.759827,
        "lng": 2.8998324
    },
    {
        "name": "L.A.T Legends Ardennes Trail 60km",
        "country": "Belgium",
        "distance": "00 Km",
        "date": "02/05/2026",
        "url": "https://ultratiming.ledossard.com/inscription/index.php?id=3051",
        "city": "Lamormenil",
        "terrain": "trail",
        "lat": 50.2542118,
        "lng": 5.6378252
    },
    {
        "name": "L.A.T Legends Ardennes Trail - La Saint Remacle Ultra",
        "country": "Belgium",
        "distance": "00 Km",
        "date": "01/05/2026",
        "url": "https://ultratiming.ledossard.com/inscription/index.php?id=3051",
        "city": "Ocquier",
        "terrain": "trail",
        "lat": 50.3966356,
        "lng": 5.3961397
    },
    {
        "name": "6. Legends Backyard Ultra",
        "country": "Belgium",
        "distance": "116h",
        "date": "25/04/2026",
        "url": "https://www.backyardbelgium.com/",
        "city": "Retie",
        "lat": 51.2675862,
        "lng": 5.0843883
    },
    {
        "name": "5ème Trail de la Siberie - 50km",
        "country": "Belgium",
        "distance": "160km",
        "date": "21/02/2026",
        "url": "https://www.trail-de-la-siberie.com/",
        "city": "Profondeville",
        "terrain": "trail",
        "lat": 50.3762043,
        "lng": 4.8675024
    },
    {
        "name": "26. Trail Godefroy Bouillon",
        "country": "Belgium",
        "distance": "100km",
        "date": "06/06/2026",
        "url": "https://www.trailrun.be/trail-godefroy-bouillon/",
        "city": "Bouillon",
        "terrain": "trail",
        "utmb_index": true,
        "lat": 49.7949836,
        "lng": 5.0672528
    },
    {
        "name": "5ème Trail de la Siberie - 75km",
        "country": "Belgium",
        "distance": "160km",
        "date": "21/02/2026",
        "url": "https://www.trail-de-la-siberie.com/",
        "city": "Profondeville",
        "terrain": "trail",
        "lat": 50.3762043,
        "lng": 4.8675024
    },
    {
        "name": "Trail de Chimay",
        "country": "Belgium",
        "distance": "50km",
        "date": "09.05.2026",
        "url": "https://www.betrail.run/race/trail.de.chimay/2026/overview",
        "city": "Bourlers",
        "lat": 50.027359,
        "lng": 4.341293
    },
    {
        "name": "1ère Ultra Trail de la Sibérie - 160km",
        "country": "Belgium",
        "distance": "160km",
        "date": "20/02/2026",
        "url": "https://www.trail-de-la-siberie.com/",
        "city": "Profondeville",
        "terrain": "trail",
        "lat": 50.3762043,
        "lng": 4.8675024
    },
    {
        "name": "LaThareé Trail  56 km",
        "country": "Belgium",
        "distance": "56km",
        "date": "14/03/2026",
        "url": "https://www.latharee-trail.be/",
        "city": "Rettigny",
        "terrain": "trail",
        "lat": 50.1678509,
        "lng": 5.8801729
    },
    {
        "name": "Castle Trail Bouillon",
        "country": "Belgium",
        "distance": "100 KM",
        "date": "22/04/2026",
        "url": "http://www.trailrun.be",
        "city": "Bouillon",
        "terrain": "trail",
        "utmb_index": true,
        "lat": 49.7949836,
        "lng": 5.0672528
    },
    {
        "name": "5ème Trail de la Siberie - 125km",
        "country": "Belgium",
        "distance": "160km",
        "date": "21/02/2026",
        "url": "https://www.trail-de-la-siberie.com/",
        "city": "Profondeville",
        "terrain": "trail",
        "lat": 50.3762043,
        "lng": 4.8675024
    },
    {
        "name": "Houffatrail 63km",
        "country": "Belgium",
        "distance": "20km",
        "date": "23/01/2027",
        "url": "https://passionforsports.eu/en-houffatrail?count=1",
        "city": "Houffalize",
        "terrain": "trail",
        "lat": 50.1323761,
        "lng": 5.7886928
    },
    {
        "name": "5ème Trail de la Siberie - 100km",
        "country": "Belgium",
        "distance": "160km",
        "date": "21/02/2026",
        "url": "https://www.trail-de-la-siberie.com/",
        "city": "Profondeville",
        "terrain": "trail",
        "lat": 50.3762043,
        "lng": 4.8675024
    },
    {
        "name": "Houffatrail 50km",
        "country": "Belgium",
        "distance": "20km",
        "date": "23/01/2027",
        "url": "https://passionforsports.eu/en-houffatrail?count=1",
        "city": "Houffalize",
        "terrain": "trail",
        "lat": 50.1323761,
        "lng": 5.7886928
    },
    {
        "name": "12-Uurs Run Middelburg",
        "country": "Netherlands",
        "distance": "13h",
        "date": "25.05.2024",
        "url": "https://statistik.d-u-v.org/eventdetail.php?event=107229",
        "city": "Middelburg",
        "lat": 51.4996784,
        "lng": 3.6137371
    },
    {
        "name": "38e Eemlake Run (Eemmeerloop)",
        "country": "Netherlands",
        "distance": "50km",
        "date": "20.04.2024",
        "url": "https://statistik.d-u-v.org/eventdetail.php?event=106907",
        "city": "Bunschoten",
        "lat": 52.2391743,
        "lng": 5.3734101
    },
    {
        "name": "5 Petranpad Ultra Run 112k",
        "country": "Netherlands",
        "distance": "112km",
        "date": "04.05.2024",
        "url": "https://statistik.d-u-v.org/eventdetail.php?event=101060",
        "city": "Meerlo",
        "lat": 51.51187,
        "lng": 6.0869555
    },
    {
        "name": "3. Petranpad Ultra Trail 60k",
        "country": "Netherlands",
        "distance": "64km",
        "date": "04.05.2024",
        "url": "https://statistik.d-u-v.org/eventdetail.php?event=101059",
        "city": "Meerlo",
        "lat": 51.51187,
        "lng": 6.0869555
    },
    {
        "name": "3 Pallas 67 Ultrameerdaagse - stage 1 - Wageningen - Arnhem",
        "country": "Netherlands",
        "distance": "51km",
        "date": "08.05.2024",
        "url": "https://statistik.d-u-v.org/eventdetail.php?event=105646",
        "city": "Wageningen",
        "lat": 51.9663016,
        "lng": 5.6662814
    },
    {
        "name": "3 Pallas 67 Ultrameerdaagse - stage 2 - Arnhem - Doesburg",
        "country": "Netherlands",
        "distance": "51km",
        "date": "09.05.2024",
        "url": "https://statistik.d-u-v.org/eventdetail.php?event=105647",
        "city": "Arnhem",
        "lat": 51.984257,
        "lng": 5.9108573
    },
    {
        "name": "3 Pallas 67 Ultrameerdaagse - stage 3 - Arnhem - Lobith",
        "country": "Netherlands",
        "distance": "66km",
        "date": "10.05.2024",
        "url": "https://statistik.d-u-v.org/eventdetail.php?event=105648",
        "city": "Arnhem",
        "lat": 51.984257,
        "lng": 5.9108573
    },
    {
        "name": "3 Pallas 67 Ultrameerdaagse - stage 4 - Arnhem - Veluwe",
        "country": "Netherlands",
        "distance": "51km",
        "date": "11.05.2024",
        "url": "https://statistik.d-u-v.org/eventdetail.php?event=105649",
        "city": "Arnhem",
        "lat": 51.984257,
        "lng": 5.9108573
    },
    {
        "name": "Salomon Koning van Spanje Trail - 80km",
        "country": "Netherlands",
        "distance": "81km",
        "date": "11.05.2024",
        "url": "https://statistik.d-u-v.org/eventdetail.php?event=109119",
        "city": "Gulpen",
        "lat": 50.8139879,
        "lng": 5.8899585
    },
    {
        "name": "80 van Balk",
        "country": "Netherlands",
        "distance": "80km",
        "date": "11.05.2024",
        "url": "https://statistik.d-u-v.org/eventdetail.php?event=107563",
        "city": "BALK",
        "lat": 52.8989296,
        "lng": 5.5830455
    },
    {
        "name": "3 Pallas 67 Ultrameerdaagse - stage 5 - Arnhem - Wageningen",
        "country": "Netherlands",
        "distance": "51km",
        "date": "12.05.2024",
        "url": "https://statistik.d-u-v.org/eventdetail.php?event=105650",
        "city": "Arnhem",
        "lat": 51.984257,
        "lng": 5.9108573
    },
    {
        "name": "18. Sri Chinmoy 100km-Lauf Amsterdam",
        "country": "Netherlands",
        "distance": "100km",
        "date": "24.05.2024",
        "url": "https://statistik.d-u-v.org/eventdetail.php?event=108137",
        "city": "Amstelveen",
        "lat": 52.3028209,
        "lng": 4.8596844
    },
    {
        "name": "18. Sri Chinmoy 50 km-Lauf Amsterdam",
        "country": "Netherlands",
        "distance": "50km",
        "date": "24.05.2024",
        "url": "https://statistik.d-u-v.org/eventdetail.php?event=108136",
        "city": "Amstelveen",
        "lat": 52.3028209,
        "lng": 4.8596844
    },
    {
        "name": "Veluwezoom Trail - Winter",
        "country": "Netherlands",
        "distance": "58km",
        "date": "29.12.2024",
        "url": "https://statistik.d-u-v.org/eventdetail.php?event=113964",
        "city": "Dieren",
        "lat": 52.0526703,
        "lng": 6.1014431
    },
    {
        "name": "2e Sint Annen 240 - 50mi",
        "country": "Netherlands",
        "distance": "50mi",
        "date": "27.12.2024",
        "url": "https://statistik.d-u-v.org/eventdetail.php?event=103936",
        "city": "Sint Annen",
        "lat": 53.2979462,
        "lng": 6.6652567
    },
    {
        "name": "UHUT UtrechtseHeuvelUltratrail 100km - Rhenen Loop split",
        "country": "Netherlands",
        "distance": "50km",
        "date": "01.12.2024",
        "url": "https://statistik.d-u-v.org/eventdetail.php?event=114434",
        "city": "Leersum",
        "lat": 52.0102642,
        "lng": 5.4332757
    },
    {
        "name": "UHUT UtrechtseHeuvelUltratrail - Rhenen Loop",
        "country": "Netherlands",
        "distance": "50km",
        "date": "01.12.2024",
        "url": "https://statistik.d-u-v.org/eventdetail.php?event=62061",
        "city": "Leersum",
        "lat": 52.0102642,
        "lng": 5.4332757
    },
    {
        "name": "Voorne's Duin Trail",
        "country": "Netherlands",
        "distance": "60km",
        "date": "01.12.2024",
        "url": "https://statistik.d-u-v.org/eventdetail.php?event=114343",
        "city": "Oostvoorne",
        "lat": 51.914271,
        "lng": 4.1038932
    },
    {
        "name": "UHUT UtrechtseHeuvelUltratrail 100km - Doorn Loop split",
        "country": "Netherlands",
        "distance": "50km",
        "date": "30.11.2024",
        "url": "https://statistik.d-u-v.org/eventdetail.php?event=114435",
        "city": "Leersum",
        "lat": 52.0102642,
        "lng": 5.4332757
    },
    {
        "name": "UHUT UtrechtseHeuvelUltratrail - Doorn Loop",
        "country": "Netherlands",
        "distance": "50km",
        "date": "30.11.2024",
        "url": "https://statistik.d-u-v.org/eventdetail.php?event=63759",
        "city": "Leersum",
        "lat": 52.0102642,
        "lng": 5.4332757
    },
    {
        "name": "Graef Castricum Trail Ultra 60km",
        "country": "Netherlands",
        "distance": "60km",
        "date": "24.11.2024",
        "url": "https://statistik.d-u-v.org/eventdetail.php?event=114055",
        "city": "Castricum",
        "lat": 52.5496739,
        "lng": 4.6696185
    },
    {
        "name": "LauwersmeerLoop",
        "country": "Netherlands",
        "distance": "60km",
        "date": "03.11.2024",
        "url": "https://statistik.d-u-v.org/eventdetail.php?event=109164",
        "city": "Zoutkamp",
        "lat": 53.3369602,
        "lng": 6.3011339
    },
    {
        "name": "3. Gaasterland Trail",
        "country": "Netherlands",
        "distance": "50km",
        "date": "26.10.2024",
        "url": "https://statistik.d-u-v.org/eventdetail.php?event=102079",
        "city": "Harich",
        "lat": 52.902242,
        "lng": 5.5642127
    },
    {
        "name": "Indian Summer Ultra 100 km",
        "country": "Netherlands",
        "distance": "100km",
        "date": "12.10.2024",
        "url": "https://statistik.d-u-v.org/eventdetail.php?event=103723",
        "city": "Gasselte",
        "lat": 52.971916,
        "lng": 6.7921853
    },
    {
        "name": "Indian Summer Ultra 75 km",
        "country": "Netherlands",
        "distance": "75km",
        "date": "12.10.2024",
        "url": "https://statistik.d-u-v.org/eventdetail.php?event=103724",
        "city": "Gasselte",
        "lat": 52.971916,
        "lng": 6.7921853
    },
    {
        "name": "Indian Summer Ultra 50 km",
        "country": "Netherlands",
        "distance": "50km",
        "date": "12.10.2024",
        "url": "https://statistik.d-u-v.org/eventdetail.php?event=103725",
        "city": "Gasselte",
        "lat": 52.971916,
        "lng": 6.7921853
    },
    {
        "name": "Brekeld Runners Trail",
        "country": "Netherlands",
        "distance": "50km",
        "date": "05.10.2024",
        "url": "https://statistik.d-u-v.org/eventdetail.php?event=114326",
        "city": "Rijssen",
        "lat": 52.3080276,
        "lng": 6.5213004
    },
    {
        "name": "Pegasus Ultra Trail",
        "country": "Netherlands",
        "distance": "50km",
        "date": "20.04.2024",
        "url": "https://statistik.d-u-v.org/eventdetail.php?event=106723",
        "city": "Ede",
        "lat": 52.0716826,
        "lng": 5.7455106
    },
    {
        "name": "Runforestrun Hart van Drenthe",
        "country": "Netherlands",
        "distance": "52km",
        "date": "13.04.2024",
        "url": "https://statistik.d-u-v.org/eventdetail.php?event=97613",
        "city": "Ellertshaar",
        "lat": 52.8964673,
        "lng": 6.7409769
    },
    {
        "name": "Cauberg Trail",
        "country": "Netherlands",
        "distance": "54km",
        "date": "30.03.2024",
        "url": "https://statistik.d-u-v.org/eventdetail.php?event=97954",
        "city": "Valkenburg",
        "lat": 50.8647531,
        "lng": 5.8312518
    },
    {
        "name": "3 6hrs Sittard - 50km Split",
        "country": "Netherlands",
        "distance": "50km",
        "date": "24.03.2024",
        "url": "https://statistik.d-u-v.org/eventdetail.php?event=106060",
        "city": "Sittard",
        "lat": 50.9974235,
        "lng": 5.8666627
    },
    {
        "name": "17e De Zestig van Texel",
        "country": "Netherlands",
        "distance": "60km",
        "date": "24.03.2024",
        "url": "https://statistik.d-u-v.org/eventdetail.php?event=105828",
        "city": "Den Hoorn (Texel)"
    },
    {
        "name": "17e De 120 van Texel",
        "country": "Netherlands",
        "distance": "120km",
        "date": "24.03.2024",
        "url": "https://statistik.d-u-v.org/eventdetail.php?event=105829",
        "city": "Den Burg (Texel)"
    },
    {
        "name": "3. 6hrs Sittard",
        "country": "Netherlands",
        "distance": "6h",
        "date": "24.03.2024",
        "url": "https://statistik.d-u-v.org/eventdetail.php?event=99486",
        "city": "Sittard",
        "lat": 50.9974235,
        "lng": 5.8666627
    },
    {
        "name": "3. 24hrs Sittard - 50km Split",
        "country": "Netherlands",
        "distance": "50km",
        "date": "23.03.2024",
        "url": "https://statistik.d-u-v.org/eventdetail.php?event=106057",
        "city": "Sittard",
        "lat": 50.9974235,
        "lng": 5.8666627
    },
    {
        "name": "4. 12hrs Sittard - 50km Split",
        "country": "Netherlands",
        "distance": "50km",
        "date": "23.03.2024",
        "url": "https://statistik.d-u-v.org/eventdetail.php?event=106062",
        "city": "Sittard",
        "lat": 50.9974235,
        "lng": 5.8666627
    },
    {
        "name": "10e Salomon Vuurtorentrail Festival Ameland 60km",
        "country": "Netherlands",
        "distance": "60km",
        "date": "17.03.2024",
        "url": "https://statistik.d-u-v.org/eventdetail.php?event=97000",
        "city": "Hollum Ameland"
    },
    {
        "name": "11. SallandTrail 80 km (50 Mijl)",
        "country": "Netherlands",
        "distance": "80km",
        "date": "09.03.2024",
        "url": "https://statistik.d-u-v.org/eventdetail.php?event=106217",
        "city": "Nijverdal",
        "lat": 52.3592015,
        "lng": 6.4654075
    },
    {
        "name": "11. SallandTrail 50 km",
        "country": "Netherlands",
        "distance": "50km",
        "date": "09.03.2024",
        "url": "https://statistik.d-u-v.org/eventdetail.php?event=106218",
        "city": "Nijverdal",
        "lat": 52.3592015,
        "lng": 6.4654075
    },
    {
        "name": "Trailrun Terschelling",
        "country": "Netherlands",
        "distance": "50km",
        "date": "03.03.2024",
        "url": "https://statistik.d-u-v.org/eventdetail.php?event=102154",
        "city": "West-Terschelling",
        "lat": 53.3613027,
        "lng": 5.2160421
    },
    {
        "name": "3 65 van Walcheren",
        "country": "Netherlands",
        "distance": "65km",
        "date": "03.03.2024",
        "url": "https://statistik.d-u-v.org/eventdetail.php?event=106147",
        "city": "Vrouwenpolder",
        "lat": 51.576602,
        "lng": 3.6165776
    },
    {
        "name": "5. Bosbokken Trail",
        "country": "Netherlands",
        "distance": "47km",
        "date": "25.02.2024",
        "url": "https://statistik.d-u-v.org/eventdetail.php?event=105519",
        "city": "Burgh-Haamstede",
        "lat": 51.7022441,
        "lng": 3.722061
    },
    {
        "name": "Dutch Coast Ultra Run by Night 50km",
        "country": "Netherlands",
        "distance": "50km",
        "date": "09.02.2024",
        "url": "https://statistik.d-u-v.org/eventdetail.php?event=105018",
        "city": "Den Helder",
        "lat": 52.9529894,
        "lng": 4.8267592
    },
    {
        "name": "Dutch Coast Ultra Run by Night 75km",
        "country": "Netherlands",
        "distance": "75km",
        "date": "09.02.2024",
        "url": "https://statistik.d-u-v.org/eventdetail.php?event=105019",
        "city": "Den Helder",
        "lat": 52.9529894,
        "lng": 4.8267592
    },
    {
        "name": "5th Drielandenpunt Winter Trail",
        "country": "Netherlands",
        "distance": "50km",
        "date": "04.02.2024",
        "url": "https://statistik.d-u-v.org/eventdetail.php?event=102041",
        "city": "Vaals",
        "lat": 50.7781016,
        "lng": 5.9810696
    },
    {
        "name": "Leenderbos Ultra Trail",
        "country": "Netherlands",
        "distance": "50km",
        "date": "28.01.2024",
        "url": "https://statistik.d-u-v.org/eventdetail.php?event=108289",
        "city": "Leende",
        "lat": 51.3484037,
        "lng": 5.5518897
    },
    {
        "name": "11. Pierewaai Trail",
        "country": "Netherlands",
        "distance": "45km",
        "date": "20.01.2024",
        "url": "https://statistik.d-u-v.org/eventdetail.php?event=98648",
        "city": "IJmuiden",
        "lat": 52.4574236,
        "lng": 4.6111981
    },
    {
        "name": "18. Sri Chinmoy 6-Stunden-Lauf Amsterdam",
        "country": "Netherlands",
        "distance": "6h",
        "date": "28.09.2024",
        "url": "https://statistik.d-u-v.org/eventdetail.php?event=110934",
        "city": "Amstelveen",
        "lat": 52.3028209,
        "lng": 4.8596844
    },
    {
        "name": "Zevenheuvelentrail",
        "country": "Netherlands",
        "distance": "60km",
        "date": "21.09.2024",
        "url": "https://statistik.d-u-v.org/eventdetail.php?event=112005",
        "city": "Nijmegen",
        "lat": 51.8425749,
        "lng": 5.8389606
    },
    {
        "name": "Zevenheuvelentrail - NK trailrunning lange trail",
        "country": "Netherlands",
        "distance": "60km",
        "date": "21.09.2024",
        "url": "https://statistik.d-u-v.org/eventdetail.php?event=112006",
        "city": "Nijmegen",
        "lat": 51.8425749,
        "lng": 5.8389606
    },
    {
        "name": "48. RUN Winschoten 100 km - open race",
        "country": "Netherlands",
        "distance": "100km",
        "date": "14.09.2024",
        "url": "https://statistik.d-u-v.org/eventdetail.php?event=110627",
        "city": "Winschoten",
        "lat": 53.143001,
        "lng": 7.0380717
    },
    {
        "name": "48. RUN Winschoten 50 km - open race",
        "country": "Netherlands",
        "distance": "50km",
        "date": "14.09.2024",
        "url": "https://statistik.d-u-v.org/eventdetail.php?event=110628",
        "city": "Winschoten",
        "lat": 53.143001,
        "lng": 7.0380717
    },
    {
        "name": "48. RUN Winschoten 100 km - Nederlands Kampioenschap",
        "country": "Netherlands",
        "distance": "100km",
        "date": "14.09.2024",
        "url": "https://statistik.d-u-v.org/eventdetail.php?event=110753",
        "city": "Winschoten",
        "lat": 53.143001,
        "lng": 7.0380717
    },
    {
        "name": "48. RUN Winschoten 50 km - Nederlands Kampioenschap",
        "country": "Netherlands",
        "distance": "50km",
        "date": "14.09.2024",
        "url": "https://statistik.d-u-v.org/eventdetail.php?event=110754",
        "city": "Winschoten",
        "lat": 53.143001,
        "lng": 7.0380717
    },
    {
        "name": "De 6 Uur van Deventer",
        "country": "Netherlands",
        "distance": "6h",
        "date": "13.07.2024",
        "url": "https://statistik.d-u-v.org/eventdetail.php?event=104997",
        "city": "Deventer",
        "lat": 52.2694897,
        "lng": 6.2364886
    },
    {
        "name": "De 6 Uur van Deventer - 50km Split",
        "country": "Netherlands",
        "distance": "50km",
        "date": "13.07.2024",
        "url": "https://statistik.d-u-v.org/eventdetail.php?event=109183",
        "city": "Deventer",
        "lat": 52.2694897,
        "lng": 6.2364886
    },
    {
        "name": "VechtdalTrail",
        "country": "Netherlands",
        "distance": "50km",
        "date": "06.07.2024",
        "url": "https://statistik.d-u-v.org/eventdetail.php?event=109094",
        "city": "Ommen",
        "lat": 52.510347,
        "lng": 6.4524247
    },
    {
        "name": "23 Zes uur van de Haarlemmermeer",
        "country": "Netherlands",
        "distance": "6h",
        "date": "29.06.2024",
        "url": "https://statistik.d-u-v.org/eventdetail.php?event=98995",
        "city": "Hoofddorp",
        "lat": 52.305554,
        "lng": 4.6926644
    },
    {
        "name": "Rondom Stad",
        "country": "Netherlands",
        "distance": "66km",
        "date": "22.06.2024",
        "url": "https://statistik.d-u-v.org/eventdetail.php?event=101921",
        "city": "Sint Annen",
        "lat": 53.2979462,
        "lng": 6.6652567
    },
    {
        "name": "3rd Liberation Trail - stage 5: Eindhoven - Groesbeek",
        "country": "Netherlands",
        "distance": "81km",
        "date": "15.06.2024",
        "url": "https://statistik.d-u-v.org/eventdetail.php?event=108326",
        "city": "Eindhoven",
        "lat": 51.4392648,
        "lng": 5.478633
    },
    {
        "name": "3 Pierewaai Summer Beach Trail",
        "country": "Netherlands",
        "distance": "50km",
        "date": "01.06.2024",
        "url": "https://statistik.d-u-v.org/eventdetail.php?event=104994",
        "city": "IJmuiden",
        "lat": 52.4574236,
        "lng": 4.6111981
    },
    {
        "name": "Linie1629ultra",
        "country": "Netherlands",
        "distance": "50km",
        "date": "01.06.2024",
        "url": "https://statistik.d-u-v.org/eventdetail.php?event=106071",
        "city": "Vught",
        "lat": 51.6511806,
        "lng": 5.2368001
    },
    {
        "name": "Amerongse Berg Ultra 50k",
        "country": "Netherlands",
        "distance": "50km",
        "date": "26.05.2024",
        "url": "https://statistik.d-u-v.org/eventdetail.php?event=108243",
        "city": "Overberg",
        "lat": 52.0390484,
        "lng": 5.4964645
    },
    {
        "name": "2de Hel van Westeremden, een klein paradijs",
        "country": "Netherlands",
        "distance": "45km",
        "date": "25.05.2024",
        "url": "https://statistik.d-u-v.org/eventdetail.php?event=106243",
        "city": "Sint Annen",
        "lat": 53.2979462,
        "lng": 6.6652567
    },
    {
        "name": "VAM12",
        "country": "Netherlands",
        "distance": "12h",
        "date": "25.05.2024",
        "url": "https://statistik.d-u-v.org/eventdetail.php?event=99640",
        "city": "Wijster",
        "lat": 52.8148592,
        "lng": 6.5163531
    },
    {
        "name": "VAM8",
        "country": "Netherlands",
        "distance": "8h",
        "date": "25.05.2024",
        "url": "https://statistik.d-u-v.org/eventdetail.php?event=107903",
        "city": "Wijster",
        "lat": 52.8148592,
        "lng": 6.5163531
    },
    {
        "name": "Cauberg Trail - winter edition",
        "country": "Netherlands",
        "distance": "54km",
        "date": "04.01.2025",
        "url": "https://statistik.d-u-v.org/eventdetail.php?event=114475",
        "city": "Valkenburg",
        "lat": 50.8647531,
        "lng": 5.8312518
    },
    {
        "name": "West Coast Challenge - Halfway",
        "country": "Netherlands",
        "distance": "62km",
        "date": "18.01.2025",
        "url": "https://statistik.d-u-v.org/eventdetail.php?event=114788",
        "city": "Hoek van Holland",
        "lat": 51.9771615,
        "lng": 4.1314526
    },
    {
        "name": "Pierewaai Trail Winter Ed. 50km",
        "country": "Netherlands",
        "distance": "50km",
        "date": "25.01.2025",
        "url": "https://statistik.d-u-v.org/eventdetail.php?event=110991",
        "city": "Hoek van Holland",
        "lat": 51.9771615,
        "lng": 4.1314526
    },
    {
        "name": "Leenderbos Ultra Trail",
        "country": "Netherlands",
        "distance": "50km",
        "date": "26.01.2025",
        "url": "https://statistik.d-u-v.org/eventdetail.php?event=115460",
        "city": "Leende",
        "lat": 51.3484037,
        "lng": 5.5518897
    },
    {
        "name": "6th Drielandenpunt Winter Trail",
        "country": "Netherlands",
        "distance": "50km",
        "date": "02.02.2025",
        "url": "https://statistik.d-u-v.org/eventdetail.php?event=117447",
        "city": "Vaals",
        "lat": 50.7781016,
        "lng": 5.9810696
    },
    {
        "name": "13th Dutch Coast Ultra Run by Night 75km",
        "country": "Netherlands",
        "distance": "75km",
        "date": "07.02.2025",
        "url": "https://statistik.d-u-v.org/eventdetail.php?event=115156",
        "city": "Den Helder",
        "lat": 52.9529894,
        "lng": 4.8267592
    },
    {
        "name": "13th Dutch Coast Ultra Run by Night 50km",
        "country": "Netherlands",
        "distance": "50km",
        "date": "07.02.2025",
        "url": "https://statistik.d-u-v.org/eventdetail.php?event=115155",
        "city": "Den Helder",
        "lat": 52.9529894,
        "lng": 4.8267592
    },
    {
        "name": "WoldjerspoorZoeker",
        "country": "Netherlands",
        "distance": "50km",
        "date": "23.02.2025",
        "url": "https://statistik.d-u-v.org/eventdetail.php?event=111349",
        "city": "Delfzijl",
        "lat": 53.3325644,
        "lng": 6.9135144
    },
    {
        "name": "Amerongse Berg Ultra 50k",
        "country": "Netherlands",
        "distance": "50km",
        "date": "23.02.2025",
        "url": "https://statistik.d-u-v.org/eventdetail.php?event=118151",
        "city": "Overberg",
        "lat": 52.0390484,
        "lng": 5.4964645
    },
    {
        "name": "6. Bosbokken Trail",
        "country": "Netherlands",
        "distance": "47km",
        "date": "23.02.2025",
        "url": "https://statistik.d-u-v.org/eventdetail.php?event=117762",
        "city": "Burgh-Haamstede",
        "lat": 51.7022441,
        "lng": 3.722061
    },
    {
        "name": "4 65 van Walcheren",
        "country": "Netherlands",
        "distance": "65km",
        "date": "02.03.2025",
        "url": "https://statistik.d-u-v.org/eventdetail.php?event=117763",
        "city": "Vrouwenpolder",
        "lat": 51.576602,
        "lng": 3.6165776
    },
    {
        "name": "12. SallandTrail 60 km",
        "country": "Netherlands",
        "distance": "60km",
        "date": "08.03.2025",
        "url": "https://statistik.d-u-v.org/eventdetail.php?event=117766",
        "city": "Nijverdal",
        "lat": 52.3592015,
        "lng": 6.4654075
    },
    {
        "name": "12. SallandTrail 50 km",
        "country": "Netherlands",
        "distance": "50km",
        "date": "08.03.2025",
        "url": "https://statistik.d-u-v.org/eventdetail.php?event=117765",
        "city": "Nijverdal",
        "lat": 52.3592015,
        "lng": 6.4654075
    },
    {
        "name": "12. SallandTrail 80 km (50 Mijl)",
        "country": "Netherlands",
        "distance": "80km",
        "date": "08.03.2025",
        "url": "https://statistik.d-u-v.org/eventdetail.php?event=117764",
        "city": "Nijverdal",
        "lat": 52.3592015,
        "lng": 6.4654075
    },
    {
        "name": "11e Salomon Vuurtorentrail Festival Ameland 60km",
        "country": "Netherlands",
        "distance": "60km",
        "date": "16.03.2025",
        "url": "https://statistik.d-u-v.org/eventdetail.php?event=117926",
        "city": "Hollum Ameland"
    },
    {
        "name": "Brabantse Vennen Ultra",
        "country": "Netherlands",
        "distance": "50km",
        "date": "29.03.2025",
        "url": "https://statistik.d-u-v.org/eventdetail.php?event=122220",
        "city": "Heeze / Noord-Brabant"
    },
    {
        "name": "5. Dinah Might 50 Miles Ultra Run",
        "country": "Netherlands",
        "distance": "80km",
        "date": "05.04.2025",
        "url": "https://statistik.d-u-v.org/eventdetail.php?event=114301",
        "city": "Emmeloord",
        "lat": 52.7087448,
        "lng": 5.7466367
    },
    {
        "name": "5. Dinah Might 100km Ultra Run",
        "country": "Netherlands",
        "distance": "100km",
        "date": "05.04.2025",
        "url": "https://statistik.d-u-v.org/eventdetail.php?event=114505",
        "city": "Emmeloord",
        "lat": 52.7087448,
        "lng": 5.7466367
    },
    {
        "name": "Stadspark Ultra",
        "country": "Netherlands",
        "distance": "6h",
        "date": "11.04.2025",
        "url": "https://statistik.d-u-v.org/eventdetail.php?event=117977",
        "city": "Groningen",
        "lat": 53.2190652,
        "lng": 6.5680077
    },
    {
        "name": "39e Eemlake Run (Eemmeerloop)",
        "country": "Netherlands",
        "distance": "50km",
        "date": "12.04.2025",
        "url": "https://statistik.d-u-v.org/eventdetail.php?event=117784",
        "city": "Bunschoten",
        "lat": 52.2391743,
        "lng": 5.3734101
    },
    {
        "name": "Runforestrun Hart van Drenthe",
        "country": "Netherlands",
        "distance": "52km",
        "date": "12.04.2025",
        "url": "https://statistik.d-u-v.org/eventdetail.php?event=117783",
        "city": "Ellertshaar",
        "lat": 52.8964673,
        "lng": 6.7409769
    },
    {
        "name": "Hollands Duin Ultra",
        "country": "Netherlands",
        "distance": "50km",
        "date": "26.04.2025",
        "url": "https://statistik.d-u-v.org/eventdetail.php?event=122221",
        "city": "Noordwijk",
        "lat": 52.2410856,
        "lng": 4.4461969
    },
    {
        "name": "6 Petranpad Ultra Run 112k",
        "country": "Netherlands",
        "distance": "112km",
        "date": "02.05.2025",
        "url": "https://statistik.d-u-v.org/eventdetail.php?event=117786",
        "city": "Meerlo",
        "lat": 51.51187,
        "lng": 6.0869555
    },
    {
        "name": "4. 6hrs Sittard",
        "country": "Netherlands",
        "distance": "6h",
        "date": "04.05.2025",
        "url": "https://statistik.d-u-v.org/eventdetail.php?event=113008",
        "city": "Sittard",
        "lat": 50.9974235,
        "lng": 5.8666627
    },
    {
        "name": "4. 6hrs Sittard - 50km Split",
        "country": "Netherlands",
        "distance": "50km",
        "date": "04.05.2025",
        "url": "https://statistik.d-u-v.org/eventdetail.php?event=118815",
        "city": "Sittard",
        "lat": 50.9974235,
        "lng": 5.8666627
    },
    {
        "name": "Salomon Koning van Spanje Trail - 101km",
        "country": "Netherlands",
        "distance": "101km",
        "date": "17.05.2025",
        "url": "https://statistik.d-u-v.org/eventdetail.php?event=119505",
        "city": "Gulpen",
        "lat": 50.8139879,
        "lng": 5.8899585
    },
    {
        "name": "Salomon Koning van Spanje Trail - 72km",
        "country": "Netherlands",
        "distance": "72km",
        "date": "17.05.2025",
        "url": "https://statistik.d-u-v.org/eventdetail.php?event=119504",
        "city": "Gulpen",
        "lat": 50.8139879,
        "lng": 5.8899585
    },
    {
        "name": "UHUT UtrechtseHeuvelUltratrail 100km",
        "country": "Netherlands",
        "distance": "100km",
        "date": "24.05.2025",
        "url": "https://statistik.d-u-v.org/eventdetail.php?event=122021",
        "city": "Leersum",
        "lat": 52.0102642,
        "lng": 5.4332757
    },
    {
        "name": "UHUT UtrechtseHeuvelUltratrail 50km",
        "country": "Netherlands",
        "distance": "50km",
        "date": "24.05.2025",
        "url": "https://statistik.d-u-v.org/eventdetail.php?event=122020",
        "city": "Leersum",
        "lat": 52.0102642,
        "lng": 5.4332757
    },
    {
        "name": "19. Sri Chinmoy 50 km-Lauf Amsterdam",
        "country": "Netherlands",
        "distance": "50km",
        "date": "24.05.2025",
        "url": "https://statistik.d-u-v.org/eventdetail.php?event=117111",
        "city": "Amstelveen",
        "lat": 52.3028209,
        "lng": 4.8596844
    },
    {
        "name": "19. Sri Chinmoy 100km-Lauf Amsterdam",
        "country": "Netherlands",
        "distance": "100km",
        "date": "24.05.2025",
        "url": "https://statistik.d-u-v.org/eventdetail.php?event=117110",
        "city": "Amstelveen",
        "lat": 52.3028209,
        "lng": 4.8596844
    },
    {
        "name": "UHUT UtrechtseHeuvelUltratrail 75 km - Spring Edition",
        "country": "Netherlands",
        "distance": "75km",
        "date": "24.05.2025",
        "url": "https://statistik.d-u-v.org/eventdetail.php?event=122136",
        "city": "Leersum",
        "lat": 52.0102642,
        "lng": 5.4332757
    },
    {
        "name": "4 Pallas 67 Ultrameerdaagse - stage 1",
        "country": "Netherlands",
        "distance": "58km",
        "date": "28.05.2025",
        "url": "https://statistik.d-u-v.org/eventdetail.php?event=111942",
        "city": "Heerlen",
        "lat": 50.8876735,
        "lng": 5.9773285
    },
    {
        "name": "4 Pallas 67 Ultrameerdaagse - stage 2",
        "country": "Netherlands",
        "distance": "53.2km",
        "date": "29.05.2025",
        "url": "https://statistik.d-u-v.org/eventdetail.php?event=111943",
        "city": "Heerlen",
        "lat": 50.8876735,
        "lng": 5.9773285
    },
    {
        "name": "4 Pallas 67 Ultrameerdaagse - stage 3",
        "country": "Netherlands",
        "distance": "54.5km",
        "date": "30.05.2025",
        "url": "https://statistik.d-u-v.org/eventdetail.php?event=111944",
        "city": "Heerlen",
        "lat": 50.8876735,
        "lng": 5.9773285
    },
    {
        "name": "VAM8",
        "country": "Netherlands",
        "distance": "8h",
        "date": "31.05.2025",
        "url": "https://statistik.d-u-v.org/eventdetail.php?event=121197",
        "city": "Wijster",
        "lat": 52.8148592,
        "lng": 6.5163531
    },
    {
        "name": "VAM12",
        "country": "Netherlands",
        "distance": "12h",
        "date": "31.05.2025",
        "url": "https://statistik.d-u-v.org/eventdetail.php?event=121196",
        "city": "Wijster",
        "lat": 52.8148592,
        "lng": 6.5163531
    },
    {
        "name": "4 Pallas 67 Ultrameerdaagse - stage 4",
        "country": "Netherlands",
        "distance": "52.5km",
        "date": "31.05.2025",
        "url": "https://statistik.d-u-v.org/eventdetail.php?event=111945",
        "city": "Heerlen",
        "lat": 50.8876735,
        "lng": 5.9773285
    },
    {
        "name": "4 Pallas 67 Ultrameerdaagse - stage 5",
        "country": "Netherlands",
        "distance": "52km",
        "date": "01.06.2025",
        "url": "https://statistik.d-u-v.org/eventdetail.php?event=111946",
        "city": "Heerlen",
        "lat": 50.8876735,
        "lng": 5.9773285
    },
    {
        "name": "5 Linie1629ultra",
        "country": "Netherlands",
        "distance": "50km",
        "date": "07.06.2025",
        "url": "https://statistik.d-u-v.org/eventdetail.php?event=108097",
        "city": "Vught",
        "lat": 51.6511806,
        "lng": 5.2368001
    },
    {
        "name": "Dik doen in de Toen",
        "country": "Netherlands",
        "distance": "50km",
        "date": "09.06.2025",
        "url": "https://statistik.d-u-v.org/eventdetail.php?event=115340",
        "city": "Groningen",
        "lat": 53.2190652,
        "lng": 6.5680077
    },
    {
        "name": "Marathon van Kerkwerve",
        "country": "Netherlands",
        "distance": "45.8km",
        "date": "14.06.2025",
        "url": "https://statistik.d-u-v.org/eventdetail.php?event=120302",
        "city": "Kerkwerve",
        "lat": 51.6863988,
        "lng": 3.8994996
    },
    {
        "name": "4th Liberation Trail - stage 5: Eindhoven - Nijmegen",
        "country": "Netherlands",
        "distance": "81km",
        "date": "14.06.2025",
        "url": "https://statistik.d-u-v.org/eventdetail.php?event=119932",
        "city": "Eindhoven",
        "lat": 51.4392648,
        "lng": 5.478633
    },
    {
        "name": "12-Uurs Run Middelburg",
        "country": "Netherlands",
        "distance": "13h",
        "date": "20.06.2025",
        "url": "https://statistik.d-u-v.org/eventdetail.php?event=121991",
        "city": "Middelburg",
        "lat": 51.4996784,
        "lng": 3.6137371
    },
    {
        "name": "3. Rondom Stad",
        "country": "Netherlands",
        "distance": "70km",
        "date": "21.06.2025",
        "url": "https://statistik.d-u-v.org/eventdetail.php?event=114348",
        "city": "Sint Annen",
        "lat": 53.2979462,
        "lng": 6.6652567
    },
    {
        "name": "4 Pierewaai Summer Beach Trail",
        "country": "Netherlands",
        "distance": "50km",
        "date": "21.06.2025",
        "url": "https://statistik.d-u-v.org/eventdetail.php?event=118593",
        "city": "IJmuiden",
        "lat": 52.4574236,
        "lng": 4.6111981
    },
    {
        "name": "BUT100 (Brabants UltraTrail) - 100 km",
        "country": "Netherlands",
        "distance": "100km",
        "date": "28.06.2025",
        "url": "https://statistik.d-u-v.org/eventdetail.php?event=122230",
        "city": "Leende",
        "lat": 51.3484037,
        "lng": 5.5518897
    },
    {
        "name": "BUT100 (Brabants UltraTrail) - 75 km",
        "country": "Netherlands",
        "distance": "75km",
        "date": "28.06.2025",
        "url": "https://statistik.d-u-v.org/eventdetail.php?event=122229",
        "city": "Leende",
        "lat": 51.3484037,
        "lng": 5.5518897
    },
    {
        "name": "BUT100 (Brabants UltraTrail) - 50 km Noord",
        "country": "Netherlands",
        "distance": "50km",
        "date": "28.06.2025",
        "url": "https://statistik.d-u-v.org/eventdetail.php?event=122228",
        "city": "Leende",
        "lat": 51.3484037,
        "lng": 5.5518897
    },
    {
        "name": "BUT100 (Brabants UltraTrail) - 50 km Zuid",
        "country": "Netherlands",
        "distance": "50km",
        "date": "28.06.2025",
        "url": "https://statistik.d-u-v.org/eventdetail.php?event=122227",
        "city": "Leende",
        "lat": 51.3484037,
        "lng": 5.5518897
    },
    {
        "name": "24 Zes uur van de Haarlemmermeer",
        "country": "Netherlands",
        "distance": "6h",
        "date": "28.06.2025",
        "url": "https://statistik.d-u-v.org/eventdetail.php?event=108596",
        "city": "Hoofddorp",
        "lat": 52.305554,
        "lng": 4.6926644
    },
    {
        "name": "VechtdalTrail",
        "country": "Netherlands",
        "distance": "50km",
        "date": "05.07.2025",
        "url": "https://statistik.d-u-v.org/eventdetail.php?event=114502",
        "city": "Ommen",
        "lat": 52.510347,
        "lng": 6.4524247
    },
    {
        "name": "VUT100 (Veluwse Ultra Trail) - 100km",
        "country": "Netherlands",
        "distance": "100km",
        "date": "26.07.2025",
        "url": "https://statistik.d-u-v.org/eventdetail.php?event=122226",
        "city": "Elspeet",
        "lat": 52.2910649,
        "lng": 5.7884632
    },
    {
        "name": "VUT100 (Veluwse Ultra Trail) - 75km",
        "country": "Netherlands",
        "distance": "75km",
        "date": "26.07.2025",
        "url": "https://statistik.d-u-v.org/eventdetail.php?event=122225",
        "city": "Elspeet",
        "lat": 52.2910649,
        "lng": 5.7884632
    },
    {
        "name": "VUT100 (Veluwse Ultra Trail) - 50km noord",
        "country": "Netherlands",
        "distance": "50km",
        "date": "26.07.2025",
        "url": "https://statistik.d-u-v.org/eventdetail.php?event=122224",
        "city": "Elspeet",
        "lat": 52.2910649,
        "lng": 5.7884632
    },
    {
        "name": "VUT100 (Veluwse Ultra Trail) - 50km zuid",
        "country": "Netherlands",
        "distance": "50km",
        "date": "26.07.2025",
        "url": "https://statistik.d-u-v.org/eventdetail.php?event=122223",
        "city": "Elspeet",
        "lat": 52.2910649,
        "lng": 5.7884632
    },
    {
        "name": "Eddy 60 Ultra",
        "country": "Netherlands",
        "distance": "60km",
        "date": "27.07.2025",
        "url": "https://statistik.d-u-v.org/eventdetail.php?event=120471",
        "city": "Assen",
        "lat": 52.9952273,
        "lng": 6.560498
    },
    {
        "name": "1 Groote Heide Ultra",
        "country": "Netherlands",
        "distance": "50km",
        "date": "30.08.2025",
        "url": "https://statistik.d-u-v.org/eventdetail.php?event=122222",
        "city": "Leende, Noord-Brabant"
    },
    {
        "name": "Ommetjesultra 55km",
        "country": "Netherlands",
        "distance": "55km",
        "date": "07.09.2025",
        "url": "https://statistik.d-u-v.org/eventdetail.php?event=115757",
        "city": "Wijchen",
        "lat": 51.8202529,
        "lng": 5.6960903
    },
    {
        "name": "49. RUN Winschoten 50 km",
        "country": "Netherlands",
        "distance": "50km",
        "date": "13.09.2025",
        "url": "https://statistik.d-u-v.org/eventdetail.php?event=116197",
        "city": "Winschoten",
        "lat": 53.143001,
        "lng": 7.0380717
    },
    {
        "name": "49. RUN Winschoten 100 km",
        "country": "Netherlands",
        "distance": "100km",
        "date": "13.09.2025",
        "url": "https://statistik.d-u-v.org/eventdetail.php?event=116196",
        "city": "Winschoten",
        "lat": 53.143001,
        "lng": 7.0380717
    },
    {
        "name": "18. Sri Chinmoy 6-Stunden-Lauf Amsterdam",
        "country": "Netherlands",
        "distance": "6h",
        "date": "27.09.2025",
        "url": "https://statistik.d-u-v.org/eventdetail.php?event=117109",
        "city": "Amstelveen",
        "lat": 52.3028209,
        "lng": 4.8596844
    },
    {
        "name": "Zevenheuvelentrail - NK trailrunning lange trail",
        "country": "Netherlands",
        "distance": "56km",
        "date": "27.09.2025",
        "url": "https://statistik.d-u-v.org/eventdetail.php?event=121160",
        "city": "Heilig Landstichting",
        "lat": 51.8171099,
        "lng": 5.8916867
    },
    {
        "name": "Zevenheuvelentrail",
        "country": "Netherlands",
        "distance": "56km",
        "date": "27.09.2025",
        "url": "https://statistik.d-u-v.org/eventdetail.php?event=121159",
        "city": "Heilig Landstichting",
        "lat": 51.8171099,
        "lng": 5.8916867
    },
    {
        "name": "Devil's Ultra",
        "country": "Netherlands",
        "distance": "24h",
        "date": "04.10.2025",
        "url": "https://statistik.d-u-v.org/eventdetail.php?event=121247",
        "city": "Doornse"
    },