[
    {
        "name": "Bastogne - Wiltz - Bastogne",
        "country": "Belgium",
        "distance": "72km",
        "date": "29.12.2024",
        "url": "https://www.trailrun.be/bastogne-wiltz-bastogne/",
        "city": "Bastogne",
        "lat": 50.0023102,
        "lng": 5.7173386,
        "slug": "bastogne-wiltz-bastogne"
    },
    {
        "name": "Bello Gallico",
        "country": "Belgium",
        "distance": "160km",
        "date": "15.12.2024",
        "url": "https://www.bellogallico.be/",
        "city": "Oud-Heverlee",
        "lat": 50.8376275,
        "lng": 4.6629253,
        "slug": "bello-gallico",
        "elevation": "2100",
        "terrain": "Muddy forest trails",
        "gear_recommendation": "Gaiters and high-lumen Petzl headlamp",
        "utmb_index": true,
        "language_profile": "NL/EN"
    },
    {
        "name": "The Bello Gallico Trail 100mi",
        "country": "Belgium",
        "distance": "100mi",
        "date": "14.12.2024",
        "url": "https://www.bellogallico.be/",
        "city": "Oud-Heverlee",
        "lat": 50.8376275,
        "lng": 4.6629253,
        "slug": "the-bello-gallico-trail-100mi"
    },
    {
        "name": "De Warmste Loop - The Warmest Run",
        "country": "Belgium",
        "distance": "8h",
        "date": "30.11.2024",
        "url": "https://www.dewarmsteloop.be",
        "city": "Wingene",
        "lat": 51.0601502,
        "lng": 3.3070748,
        "slug": "de-warmste-loop-the-warmest-run"
    },
    {
        "name": "28ème Olne-Spa-Olne",
        "country": "Belgium",
        "distance": "71km",
        "date": "24.11.2024",
        "url": "https://www.courirpourleplaisir.be/olne-spa-olne-2/",
        "city": "Olne",
        "lat": 50.5901199,
        "lng": 5.7479948,
        "slug": "28-me-olne-spa-olne"
    },
    {
        "name": "6 hour Winter Challenge of Hamme",
        "country": "Belgium",
        "distance": "6h",
        "date": "23.11.2024",
        "url": "http://www.enduranceday.be",
        "city": "Hamme",
        "lat": 51.0977642,
        "lng": 4.1377229,
        "slug": "6-hour-winter-challenge-of-hamme"
    },
    {
        "name": "3 De Wase (Halve en Ultra) Marathon",
        "country": "Belgium",
        "distance": "63km",
        "date": "17.11.2024",
        "url": "https://www.dewasemarathon.run",
        "city": "Sinaai",
        "lat": 51.15689,
        "lng": 4.04172,
        "slug": "3-de-wase-halve-en-ultra-marathon"
    },
    {
        "name": "Grand Trail des Lacs et Châteaux Winter",
        "country": "Belgium",
        "distance": "66km",
        "date": "09.11.2024",
        "url": "https://grandtrail.be/courses/gt65/",
        "city": "Ovifat",
        "lat": 50.4663622,
        "lng": 6.107063,
        "slug": "grand-trail-des-lacs-et-ch-teaux-winter"
    },
    {
        "name": "12th Bear Trail 83 Km",
        "country": "Belgium",
        "distance": "83km",
        "date": "26.10.2024",
        "url": "https://www.bearsports.nl/bear-trail/",
        "city": "Voeren",
        "lat": 50.746555,
        "lng": 5.839016,
        "slug": "12th-bear-trail-83-km"
    },
    {
        "name": "12th Bear Trail 58 Km",
        "country": "Belgium",
        "distance": "58km",
        "date": "26.10.2024",
        "url": "http://www.bearsports.nl",
        "city": "Voeren",
        "lat": 50.746555,
        "lng": 5.839016,
        "slug": "12th-bear-trail-58-km"
    },
    {
        "name": "12th Grizzly100",
        "country": "Belgium",
        "distance": "100km",
        "date": "26.10.2024",
        "url": "https://www.bearsports.nl/en/events/bear-trail/",
        "city": "s'Gravenvoeren",
        "lat": 50.7588019,
        "lng": 5.7619737,
        "slug": "12th-grizzly100"
    },
    {
        "name": "Trail de L'Abbaye",
        "country": "Belgium",
        "distance": "50km",
        "date": "05.10.2024",
        "url": "https://traildelabbaye.be/nl/",
        "city": "Villers-la-Ville",
        "lat": 50.5727285,
        "lng": 4.5342675,
        "slug": "trail-de-l-abbaye"
    },
    {
        "name": "Clash Der Titanen 110",
        "country": "Belgium",
        "distance": "115km",
        "date": "05.10.2024",
        "url": "https://www.trailrunschool.be/clash-der-titanen",
        "city": "Wezemaal",
        "lat": 50.9482598,
        "lng": 4.7544622,
        "slug": "clash-der-titanen-110"
    },
    {
        "name": "Clash Der Titanen 60",
        "country": "Belgium",
        "distance": "61km",
        "date": "05.10.2024",
        "url": "https://www.trailrunschool.be/clash-der-titanen",
        "city": "Wezemaal",
        "lat": 50.9482598,
        "lng": 4.7544622,
        "slug": "clash-der-titanen-60"
    },
    {
        "name": "Clash Der Titanen 160",
        "country": "Belgium",
        "distance": "162km",
        "date": "05.10.2024",
        "url": "https://www.trailrunschool.be/clash-der-titanen",
        "city": "Wezemaal",
        "lat": 50.9482598,
        "lng": 4.7544622,
        "slug": "clash-der-titanen-160"
    },
    {
        "name": "L'Ultra by HuyForTrail",
        "country": "Belgium",
        "distance": "67km",
        "date": "22.09.2024",
        "url": "https://huyfortrail.org/index.php/lultra/",
        "city": "Bas-Oha",
        "lat": 50.5241866,
        "lng": 5.1767579,
        "slug": "l-ultra-by-huyfortrail"
    },
    {
        "name": "Trail des Fées",
        "country": "Belgium",
        "distance": "55km",
        "date": "21.09.2024",
        "url": "http://www.traildesfees.be/",
        "city": "Bertrix",
        "lat": 49.8546564,
        "lng": 5.2529266,
        "slug": "trail-des-f-es"
    },
    {
        "name": "Kjir ne ki were 12u",
        "country": "Belgium",
        "distance": "12h",
        "date": "07.09.2024",
        "url": "http://ultrarun-kjirnekiwere.jouwweb.nl/",
        "city": "Dentergem",
        "lat": 50.9642783,
        "lng": 3.4191602,
        "slug": "kjir-ne-ki-were-12u"
    },
    {
        "name": "60 km van Schoten",
        "country": "Belgium",
        "distance": "60km",
        "date": "25.08.2024",
        "url": "http://bloggen.be/50kmvanschoten",
        "city": "Schoten",
        "lat": 51.2516344,
        "lng": 4.4980446,
        "slug": "60-km-van-schoten"
    },
    {
        "name": "13ème Trail des Fantomes 68km",
        "country": "Belgium",
        "distance": "68km",
        "date": "10.08.2024",
        "url": "https://www.passionforsports.eu/fr-traildesfantomes?count=2",
        "city": "La Roche-en-Ardenne",
        "lat": 50.1602833,
        "lng": 5.5627594,
        "slug": "13-me-trail-des-fantomes-68km"
    },
    {
        "name": "13ème Trail des Fantomes 48km",
        "country": "Belgium",
        "distance": "48km",
        "date": "10.08.2024",
        "url": "https://www.passionforsports.eu/fr-traildesfantomes?count=2",
        "city": "La Roche-en-Ardenne",
        "lat": 50.1602833,
        "lng": 5.5627594,
        "slug": "13-me-trail-des-fantomes-48km"
    },
    {
        "name": "13th 6 uur van Aalter",
        "country": "Belgium",
        "distance": "6h",
        "date": "14.07.2024",
        "url": "https://www.marathonandmore.be",
        "city": "Aalter",
        "lat": 51.083894,
        "lng": 3.4485192,
        "slug": "13th-6-uur-van-aalter"
    },
    {
        "name": "15ème Festival Trail Semois",
        "country": "Belgium",
        "distance": "70km",
        "date": "06.07.2024",
        "url": "http://www.festival-trail-semois.be/",
        "city": "Herbeumont",
        "lat": 49.7815364,
        "lng": 5.2377736,
        "slug": "15-me-festival-trail-semois"
    },
    {
        "name": "La Chouffe Trail 51km",
        "country": "Belgium",
        "distance": "51km",
        "date": "06.07.2024",
        "url": "https://www.passionforsports.eu/fr-la-chouffe-trail?count=2",
        "city": "Houffalize",
        "lat": 50.1323761,
        "lng": 5.7886928,
        "slug": "la-chouffe-trail-51km"
    },
    {
        "name": "La Chouffe Trail 70km",
        "country": "Belgium",
        "distance": "70km",
        "date": "06.07.2024",
        "url": "https://www.passionforsports.eu/fr-la-chouffe-trail?count=2",
        "city": "Houffalize",
        "lat": 50.1323761,
        "lng": 5.7886928,
        "slug": "la-chouffe-trail-70km"
    },
    {
        "name": "Mini Medium and MegaTornado",
        "country": "Belgium",
        "distance": "100km",
        "date": "30.06.2024",
        "url": "https://runmymarathon-ultra.jouwweb.nl/kalender",
        "city": "Silly",
        "lat": 50.6428391,
        "lng": 3.9423486,
        "slug": "mini-medium-and-megatornado"
    },
    {
        "name": "Another One Bites the Dust",
        "country": "Belgium",
        "distance": "32h",
        "date": "28.06.2024",
        "url": "http://www.anotheronebitesthedust.be",
        "city": "Bierbeek",
        "lat": 50.8319724,
        "lng": 4.7747499,
        "slug": "another-one-bites-the-dust"
    },
    {
        "name": "4. Antwerp Backyard Ultra",
        "country": "Belgium",
        "distance": "46h",
        "date": "28.06.2024",
        "url": "http://www.antwerpbackyardultra.be",
        "city": "Schelle",
        "lat": 51.1245635,
        "lng": 4.3361875,
        "slug": "4-antwerp-backyard-ultra"
    },
    {
        "name": "Haute Ardenne Ultra Trail",
        "country": "Belgium",
        "distance": "50km",
        "date": "22.06.2024",
        "url": "https://www.mudsweattrails.nl/haute-ardenne-ultra-trail-festival/",
        "city": "Trois-Ponts",
        "lat": 50.3726812,
        "lng": 5.8702957,
        "slug": "haute-ardenne-ultra-trail"
    },
    {
        "name": "Trail Godefroy Bouillon",
        "country": "Belgium",
        "distance": "104km",
        "date": "15.06.2024",
        "url": "https://www.passionforsports.eu/nl-trailgodefroy?count=1",
        "city": "Bouillon",
        "lat": 49.7949836,
        "lng": 5.0672528,
        "slug": "trail-godefroy-bouillon"
    },
    {
        "name": "1st The Longest Day 50km",
        "country": "Belgium",
        "distance": "50km",
        "date": "08.06.2024",
        "url": "https://passionforsports.eu/en-thelongestdaytrail?count=1",
        "city": "Spa",
        "lat": 50.4920654,
        "lng": 5.8627569,
        "slug": "1st-the-longest-day-50km"
    },
    {
        "name": "17e Ohm Trail - XL",
        "country": "Belgium",
        "distance": "55km",
        "date": "02.06.2024",
        "url": "https://www.eventstrail.be/ohmtrail/",
        "city": "Aywaille",
        "lat": 50.4758998,
        "lng": 5.6763249,
        "slug": "17e-ohm-trail-xl"
    },
    {
        "name": "17e Ohm Trail - Ultra",
        "country": "Belgium",
        "distance": "80km",
        "date": "02.06.2024",
        "url": "https://www.eventstrail.be/ohmtrail/",
        "city": "Aywaille",
        "lat": 50.4758998,
        "lng": 5.6763249,
        "slug": "17e-ohm-trail-ultra"
    },
    {
        "name": "La Balade du Gendarme",
        "country": "Belgium",
        "distance": "102km",
        "date": "19.05.2024",
        "url": "https://www.lescoureurscelestes.be/",
        "city": "Landenne",
        "lat": 50.5142495,
        "lng": 5.0646275,
        "slug": "la-balade-du-gendarme"
    },
    {
        "name": "Grand Trail des Lacs et Châteaux 85km",
        "country": "Belgium",
        "distance": "85km",
        "date": "19.05.2024",
        "url": "https://grandtrail.be/",
        "city": "Ovifat",
        "lat": 50.4663622,
        "lng": 6.107063,
        "slug": "grand-trail-des-lacs-et-ch-teaux-85km"
    },
    {
        "name": "6 uur Challenge van Hamme",
        "country": "Belgium",
        "distance": "6h",
        "date": "11.05.2024",
        "url": "https://www.enduranceday.be",
        "city": "Hamme",
        "lat": 51.0977642,
        "lng": 4.1377229,
        "slug": "6-uur-challenge-van-hamme"
    },
    {
        "name": "Trail de Chimay",
        "country": "Belgium",
        "distance": "50km",
        "date": "11.05.2024",
        "url": "https://passionforsports.eu/en-traildechimay?count=1",
        "city": "Bourlers",
        "lat": 50.027359,
        "lng": 4.341293,
        "slug": "trail-de-chimay"
    },
    {
        "name": "Until the End - Backyard Ultra",
        "country": "Belgium",
        "distance": "32h",
        "date": "04.05.2024",
        "url": "https://www.until-the-end.com/",
        "city": "Spa",
        "lat": 50.4920654,
        "lng": 5.8627569,
        "slug": "until-the-end-backyard-ultra"
    },
    {
        "name": "L.A.T Legends Ardennes Trail 100km",
        "country": "Belgium",
        "distance": "107km",
        "date": "27.04.2024",
        "url": "https://legendsardennestrail.be",
        "city": "Nisramont",
        "lat": 50.1353549,
        "lng": 5.6471185,
        "slug": "l-a-t-legends-ardennes-trail-100km"
    },
    {
        "name": "L.A.T Legends Ardennes Trail 60km",
        "country": "Belgium",
        "distance": "62km",
        "date": "27.04.2024",
        "url": "https://legendsardennestrail.be",
        "city": "Lamormenil",
        "lat": 50.2542118,
        "lng": 5.6378252,
        "slug": "l-a-t-legends-ardennes-trail-60km"
    },
    {
        "name": "Legends Backyard Ultra",
        "country": "Belgium",
        "distance": "53h",
        "date": "20.04.2024",
        "url": "https://www.backyardbelgium.com/",
        "city": "Kasterlee",
        "lat": 51.2407915,
        "lng": 4.967812,
        "slug": "legends-backyard-ultra"
    },
    {
        "name": "TDI (Trail des Idylles)",
        "country": "Belgium",
        "distance": "52.4km",
        "date": "13.04.2024",
        "url": "http://www.traildesidylles.be/",
        "city": "Malmedy / Chodes",
        "slug": "tdi-trail-des-idylles"
    },
    {
        "name": "Trail des Cisterciens",
        "country": "Belgium",
        "distance": "67km",
        "date": "07.04.2024",
        "url": "http://www.traildescisterciens.be",
        "city": "Court-St-Etienne",
        "lat": 50.6443208,
        "lng": 4.5685766,
        "slug": "trail-des-cisterciens"
    },
    {
        "name": "Endurance Day Hamme 50 km",
        "country": "Belgium",
        "distance": "50km",
        "date": "17.03.2024",
        "url": "https://www.enduranceday.be",
        "city": "Hamme",
        "lat": 51.0977642,
        "lng": 4.1377229,
        "slug": "endurance-day-hamme-50-km"
    },
    {
        "name": "Endurance Day Hamme 100 km",
        "country": "Belgium",
        "distance": "100km",
        "date": "17.03.2024",
        "url": "https://www.enduranceday.be",
        "city": "Hamme",
        "lat": 51.0977642,
        "lng": 4.1377229,
        "slug": "endurance-day-hamme-100-km"
    },
    {
        "name": "Endurance Day Hamme 50 mi",
        "country": "Belgium",
        "distance": "50mi",
        "date": "17.03.2024",
        "url": "https://www.enduranceday.be",
        "city": "Hamme",
        "lat": 51.0977642,
        "lng": 4.1377229,
        "slug": "endurance-day-hamme-50-mi"
    },
    {
        "name": "LaThareé Trail  48 km",
        "country": "Belgium",
        "distance": "48km",
        "date": "16.03.2024",
        "url": "https://www.latharee-trail.be/",
        "city": "Rettigny",
        "lat": 50.1678509,
        "lng": 5.8801729,
        "slug": "lathare-trail-48-km"
    },
    {
        "name": "LaThareé Trail  55 km",
        "country": "Belgium",
        "distance": "55km",
        "date": "16.03.2024",
        "url": "https://www.latharee-trail.be/",
        "city": "Rettigny",
        "lat": 50.1678509,
        "lng": 5.8801729,
        "slug": "lathare-trail-55-km"
    },
    {
        "name": "3ème Trail de la Siberie - 50km",
        "country": "Belgium",
        "distance": "52km",
        "date": "24.02.2024",
        "url": "https://www.trail-de-la-siberie.com/",
        "city": "Profondeville",
        "lat": 50.3762043,
        "lng": 4.8675024,
        "slug": "3-me-trail-de-la-siberie-50km"
    },
    {
        "name": "3ème Trail de la Siberie - 75km",
        "country": "Belgium",
        "distance": "76km",
        "date": "24.02.2024",
        "url": "https://www.trail-de-la-siberie.com/",
        "city": "Profondeville",
        "lat": 50.3762043,
        "lng": 4.8675024,
        "slug": "3-me-trail-de-la-siberie-75km"
    },
    {
        "name": "3ème Trail de la Siberie - 100km",
        "country": "Belgium",
        "distance": "101km",
        "date": "24.02.2024",
        "url": "https://www.trail-de-la-siberie.com/",
        "city": "Profondeville",
        "lat": 50.3762043,
        "lng": 4.8675024,
        "slug": "3-me-trail-de-la-siberie-100km"
    },
    {
        "name": "2. Mad Elf Run",
        "country": "Belgium",
        "distance": "49km",
        "date": "17.02.2024",
        "url": "https://m.facebook.com/events/3148237908819490/",
        "city": "Aywaille",
        "lat": 50.4758998,
        "lng": 5.6763249,
        "slug": "2-mad-elf-run"
    },
    {
        "name": "Muziekbos Trail - 64 km",
        "country": "Belgium",
        "distance": "64km",
        "date": "11.02.2024",
        "url": "https://hermes-running-events.odoo.com/muziekbos-trail",
        "city": "Ronse",
        "lat": 50.7526199,
        "lng": 3.6014477,
        "slug": "muziekbos-trail-64-km"
    },
    {
        "name": "Muziekbos Trail - 45 km",
        "country": "Belgium",
        "distance": "45km",
        "date": "11.02.2024",
        "url": "https://hermes-running-events.odoo.com/muziekbos-trail",
        "city": "Ronse",
        "lat": 50.7526199,
        "lng": 3.6014477,
        "slug": "muziekbos-trail-45-km"
    },
    {
        "name": "Trailmarathon Het Leen",
        "country": "Belgium",
        "distance": "45km",
        "date": "10.02.2024",
        "url": "http://www.cavalopers.be",
        "city": "Eeklo",
        "lat": 51.1844827,
        "lng": 3.5665965,
        "slug": "trailmarathon-het-leen"
    },
    {
        "name": "Houffatrail 50km",
        "country": "Belgium",
        "distance": "50km",
        "date": "21.01.2024",
        "url": "https://passionforsports.eu/en-houffatrail?count=1",
        "city": "Houffalize",
        "lat": 50.1323761,
        "lng": 5.7886928,
        "slug": "houffatrail-50km"
    },
    {
        "name": "Houffatrail 65km",
        "country": "Belgium",
        "distance": "65km",
        "date": "21.01.2024",
        "url": "https://passionforsports.eu/en-houffatrail?count=1",
        "city": "Houffalize",
        "lat": 50.1323761,
        "lng": 5.7886928,
        "slug": "houffatrail-65km"
    },
    {
        "name": "9. Bostrails Aalter",
        "country": "Belgium",
        "distance": "47km",
        "date": "20.01.2024",
        "url": "https://www.marathonandmore.be/",
        "city": "Aalter",
        "lat": 51.083894,
        "lng": 3.4485192,
        "slug": "9-bostrails-aalter"
    },
    {
        "name": "Bastogne - Wiltz - Bastogne 70km",
        "country": "Belgium",
        "distance": "70km",
        "date": "28.12.2025",
        "url": "https://www.trailrun.be/bastogne-wiltz-bastogne/",
        "city": "Bastogne",
        "lat": 50.0023102,
        "lng": 5.7173386,
        "slug": "bastogne-wiltz-bastogne-70km"
    },
    {
        "name": "Bastogne - Wiltz - Bastogne 50km",
        "country": "Belgium",
        "distance": "50km",
        "date": "28.12.2025",
        "url": "https://www.trailrun.be/bastogne-wiltz-bastogne/",
        "city": "Bastogne",
        "lat": 50.0023102,
        "lng": 5.7173386,
        "slug": "bastogne-wiltz-bastogne-50km"
    },
    {
        "name": "Meerdaalwoud Trail",
        "country": "Belgium",
        "distance": "50km",
        "date": "20.12.2025",
        "url": "https://www.trailrun.be/meerdaalwoud-trail/",
        "city": "Bierbeek",
        "lat": 50.8319724,
        "lng": 4.7747499,
        "slug": "meerdaalwoud-trail"
    },
    {
        "name": "7. Trail du BW - 62km",
        "country": "Belgium",
        "distance": "62km",
        "date": "07.12.2025",
        "url": "https://www.traildubw.be/",
        "city": "Grez-Doiceau",
        "lat": 50.7386182,
        "lng": 4.6962324,
        "slug": "7-trail-du-bw-62km"
    },
    {
        "name": "7. Trail du BW - 84km",
        "country": "Belgium",
        "distance": "84km",
        "date": "07.12.2025",
        "url": "https://www.traildubw.be/",
        "city": "Grez-Doiceau",
        "lat": 50.7386182,
        "lng": 4.6962324,
        "slug": "7-trail-du-bw-84km"
    },
    {
        "name": "Trail de la Soupe",
        "country": "Belgium",
        "distance": "45km",
        "date": "30.11.2025",
        "url": "https://www.trailrun.be/fr/trail-de-la-soupe/#efaq-45km-dimanche-1730m-d",
        "city": "La-Roche-en-Ardenne",
        "lat": 50.1602833,
        "lng": 5.5627594,
        "slug": "trail-de-la-soupe"
    },
    {
        "name": "29ème Olne-Spa-Olne",
        "country": "Belgium",
        "distance": "71km",
        "date": "23.11.2025",
        "url": "https://www.courirpourleplaisir.be/olne-spa-olne-2/",
        "city": "Olne",
        "lat": 50.5901199,
        "lng": 5.7479948,
        "slug": "29-me-olne-spa-olne"
    },
    {
        "name": "5° Grand Trail des Lacs et Châteaux Winter",
        "country": "Belgium",
        "distance": "66km",
        "date": "08.11.2025",
        "url": "https://grandtrail.be/courses/gt65/",
        "city": "Ovifat",
        "lat": 50.4663622,
        "lng": 6.107063,
        "slug": "5-grand-trail-des-lacs-et-ch-teaux-winter"
    },
    {
        "name": "4 De Wase (Ultra) Marathon",
        "country": "Belgium",
        "distance": "58km",
        "date": "26.10.2025",
        "url": "https://www.dewasemarathon.run",
        "city": "Sinaai",
        "lat": 51.15689,
        "lng": 4.04172,
        "slug": "4-de-wase-ultra-marathon"
    },
    {
        "name": "8. Grizzly100",
        "country": "Belgium",
        "distance": "100km",
        "date": "25.10.2025",
        "url": "https://www.bearsports.nl/bear-trail/",
        "city": "s'Gravenvoeren",
        "lat": 50.7588019,
        "lng": 5.7619737,
        "slug": "8-grizzly100"
    },
    {
        "name": "13th Bear Trail 58 Km",
        "country": "Belgium",
        "distance": "58km",
        "date": "25.10.2025",
        "url": "https://www.bearsports.nl/bear-trail/",
        "city": "Voeren",
        "lat": 50.746555,
        "lng": 5.839016,
        "slug": "13th-bear-trail-58-km"
    },
    {
        "name": "8. Bear Trail 83 Km",
        "country": "Belgium",
        "distance": "83km",
        "date": "25.10.2025",
        "url": "https://www.bearsports.nl/bear-trail/",
        "city": "Voeren",
        "lat": 50.746555,
        "lng": 5.839016,
        "slug": "8-bear-trail-83-km"
    },
    {
        "name": "Clash Der Titanen 120",
        "country": "Belgium",
        "distance": "123km",
        "date": "11.10.2025",
        "url": "https://www.waco-sports.be/clash-der-titanen",
        "city": "Wezemaal",
        "lat": 50.9482598,
        "lng": 4.7544622,
        "slug": "clash-der-titanen-120"
    },
    {
        "name": "Clash Der Titanen 90",
        "country": "Belgium",
        "distance": "93km",
        "date": "11.10.2025",
        "url": "https://www.waco-sports.be/clash-der-titanen",
        "city": "Wezemaal",
        "lat": 50.9482598,
        "lng": 4.7544622,
        "slug": "clash-der-titanen-90"
    },
    {
        "name": "Clash Der Titanen 200",
        "country": "Belgium",
        "distance": "203km",
        "date": "10.10.2025",
        "url": "https://www.waco-sports.be/clash-der-titanen",
        "city": "Wezemaal",
        "lat": 50.9482598,
        "lng": 4.7544622,
        "slug": "clash-der-titanen-200"
    },
    {
        "name": "GR Provincie Trail Henegouwen",
        "country": "Belgium",
        "distance": "45km",
        "date": "05.10.2025",
        "url": "marathonandmore.be",
        "city": "Erbisoeul",
        "lat": 50.5155495,
        "lng": 3.8961158,
        "slug": "gr-provincie-trail-henegouwen"
    },
    {
        "name": "Infinity Trail - Ultra Trail",
        "country": "Belgium",
        "distance": "70km",
        "date": "04.10.2025",
        "url": "https://www.facebook.com/profile.php?id=100063772611356",
        "city": "Vielsalm",
        "lat": 50.2842154,
        "lng": 5.9162783,
        "slug": "infinity-trail-ultra-trail"
    },
    {
        "name": "4. L'Ultratrail by HuyForTrail",
        "country": "Belgium",
        "distance": "50km",
        "date": "21.09.2025",
        "url": "https://huyfortrail.com/lultra-trail/",
        "city": "Andenne",
        "lat": 50.4896303,
        "lng": 5.0587475,
        "slug": "4-l-ultratrail-by-huyfortrail"
    },
    {
        "name": "11. Trail des Fées",
        "country": "Belgium",
        "distance": "55km",
        "date": "20.09.2025",
        "url": "http://www.traildesfees.be/",
        "city": "Bertrix",
        "lat": 49.8546564,
        "lng": 5.2529266,
        "slug": "11-trail-des-f-es"
    },
    {
        "name": "Canceled: 6 uur Challenge van Hamme (BEL)",
        "country": "Belgium",
        "distance": "6h",
        "date": "07.09.2025",
        "url": "https://www.enduranceday.be",
        "city": "Hamme",
        "lat": 51.0977642,
        "lng": 4.1377229,
        "slug": "canceled-6-uur-challenge-van-hamme-bel"
    },
    {
        "name": "Europa Trail Brussels 80km",
        "country": "Belgium",
        "distance": "80km",
        "date": "06.09.2025",
        "url": "https://www.zatopekmagazine.com/en/europatrail/distances/#80km",
        "city": "Uccle",
        "lat": 50.8035441,
        "lng": 4.3338445,
        "slug": "europa-trail-brussels-80km"
    },
    {
        "name": "3. Europa Trail Brussels 52km",
        "country": "Belgium",
        "distance": "52km",
        "date": "06.09.2025",
        "url": "https://www.zatopekmagazine.com/en/europatrail/distances/#52km",
        "city": "Uccle",
        "lat": 50.8035441,
        "lng": 4.3338445,
        "slug": "3-europa-trail-brussels-52km"
    },
    {
        "name": "7. One More Loop",
        "country": "Belgium",
        "distance": "34h",
        "date": "05.09.2025",
        "url": "https://www.bvrc.be/index.php?page=challenge&id=110",
        "city": "Geraardsbergen",
        "lat": 50.7715779,
        "lng": 3.8827287,
        "slug": "7-one-more-loop"
    },
    {
        "name": "Transeuropalauf 2025 19. Etappe Libramont-Chevigny - Simmern",
        "country": "Belgium",
        "distance": "66km",
        "date": "21.08.2025",
        "url": "https://www.neckarlauf.com",
        "city": "Libramont-Chevigny",
        "lat": 49.94991,
        "lng": 5.4370892,
        "slug": "transeuropalauf-2025-19-etappe-libramont-chevigny-simmern"
    },
    {
        "name": "Transeuropalauf 2025 17. Etappe Eghezee - Givet",
        "country": "Belgium",
        "distance": "72km",
        "date": "19.08.2025",
        "url": "https://www.neckarlauf.com",
        "city": "Eghezee",
        "lat": 50.591679,
        "lng": 4.9065999,
        "slug": "transeuropalauf-2025-17-etappe-eghezee-givet"
    },
    {
        "name": "Transeuropalauf 2025 16. Etappe Bekkevoort - Eghezee",
        "country": "Belgium",
        "distance": "50km",
        "date": "18.08.2025",
        "url": "https://www.neckarlauf.com",
        "city": "Bekkevoort",
        "lat": 50.9312464,
        "lng": 4.9954667,
        "slug": "transeuropalauf-2025-16-etappe-bekkevoort-eghezee"
    },
    {
        "name": "Transeuropalauf 2025 15. Etappe Zutendaal - Bekkevoort",
        "country": "Belgium",
        "distance": "km58",
        "date": "17.08.2025",
        "url": "https://www.neckarlauf.com",
        "city": "Zutendaal",
        "lat": 50.9318992,
        "lng": 5.5725548,
        "slug": "transeuropalauf-2025-15-etappe-zutendaal-bekkevoort"
    },
    {
        "name": "14ème Trail des Fantomes 55km",
        "country": "Belgium",
        "distance": "55km",
        "date": "09.08.2025",
        "url": "https://www.passionforsports.eu/fr-traildesfantomes?count=2",
        "city": "Nisramont",
        "lat": 50.1353549,
        "lng": 5.6471185,
        "slug": "14-me-trail-des-fantomes-55km"
    },
    {
        "name": "14ème Trail des Fantomes 73km",
        "country": "Belgium",
        "distance": "73km",
        "date": "09.08.2025",
        "url": "https://www.passionforsports.eu/fr-traildesfantomes?count=2",
        "city": "Nisramont",
        "lat": 50.1353549,
        "lng": 5.6471185,
        "slug": "14-me-trail-des-fantomes-73km"
    },
    {
        "name": "Ultra Trail Haute Ardenne - Jour 2 - 60 km",
        "country": "Belgium",
        "distance": "60km",
        "date": "03.08.2025",
        "url": "https://www.utha.be/57km",
        "city": "Station de la Baraque de Fraiture",
        "slug": "ultra-trail-haute-ardenne-jour-2-60-km"
    },
    {
        "name": "Ultra Trail Haute Ardenne - Jour 1 50 km",
        "country": "Belgium",
        "distance": "50km",
        "date": "02.08.2025",
        "url": "https://www.utha.be/50km-d1",
        "city": "Malmedy",
        "lat": 50.4265348,
        "lng": 6.0276059,
        "slug": "ultra-trail-haute-ardenne-jour-1-50-km"
    },
    {
        "name": "Ultra Trail Haute Ardenne - Jour 1 70 km",
        "country": "Belgium",
        "distance": "70km",
        "date": "02.08.2025",
        "url": "https://www.utha.be/70km-d1",
        "city": "Signal de Botrange",
        "slug": "ultra-trail-haute-ardenne-jour-1-70-km"
    },
    {
        "name": "Ultra Trail Haute Ardenne - Jour 1 100 km",
        "country": "Belgium",
        "distance": "100km",
        "date": "02.08.2025",
        "url": "https://www.utha.be/100km-d1",
        "city": "Waimes (Signal de Botrange)",
        "slug": "ultra-trail-haute-ardenne-jour-1-100-km"
    },
    {
        "name": "14° 6 uur van Aalter",
        "country": "Belgium",
        "distance": "6h",
        "date": "20.07.2025",
        "url": "https://www.marathonandmore.be",
        "city": "Aalter",
        "lat": 51.083894,
        "lng": 3.4485192,
        "slug": "14-6-uur-van-aalter"
    },
    {
        "name": "GR Provincie Trail Limburg",
        "country": "Belgium",
        "distance": "46.3km",
        "date": "06.07.2025",
        "url": "https://my.raceresult.com/317068/info",
        "city": "Teuven",
        "lat": 50.7514715,
        "lng": 5.8743087,
        "slug": "gr-provincie-trail-limburg"
    },
    {
        "name": "8ème La Chouffe Trail 56km",
        "country": "Belgium",
        "distance": "56km",
        "date": "05.07.2025",
        "url": "https://www.passionforsports.eu/fr-la-chouffe-trail?count=2",
        "city": "Houffalize",
        "lat": 50.1323761,
        "lng": 5.7886928,
        "slug": "8-me-la-chouffe-trail-56km"
    },
    {
        "name": "8ème La Chouffe Trail 80km",
        "country": "Belgium",
        "distance": "80km",
        "date": "05.07.2025",
        "url": "https://www.passionforsports.eu/fr-la-chouffe-trail?count=2",
        "city": "Houffalize",
        "lat": 50.1323761,
        "lng": 5.7886928,
        "slug": "8-me-la-chouffe-trail-80km"
    },
    {
        "name": "17ème Festival Trail Semois",
        "country": "Belgium",
        "distance": "70km",
        "date": "05.07.2025",
        "url": "http://www.festival-trail-semois.be/",
        "city": "Herbeumont",
        "lat": 49.7815364,
        "lng": 5.2377736,
        "slug": "17-me-festival-trail-semois"
    },
    {
        "name": "Ultra Tour de Liège",
        "country": "Belgium",
        "distance": "67km",
        "date": "05.07.2025",
        "url": "http://ultratourdeliege.wikeo.net/",
        "city": "Lüttich",
        "lat": 50.6450944,
        "lng": 5.5736112,
        "slug": "ultra-tour-de-li-ge"
    },
    {
        "name": "Canceled: Mini and MegaTornado (BEL)",
        "country": "Belgium",
        "distance": "100km",
        "date": "29.06.2025",
        "url": "https://runmymarathon-ultra.jouwweb.nl/kalender",
        "city": "Silly",
        "lat": 50.6428391,
        "lng": 3.9423486,
        "slug": "canceled-mini-and-megatornado-bel"
    },
    {
        "name": "L'assaut du Maquisard",
        "country": "Belgium",
        "distance": "45km",
        "date": "28.06.2025",
        "url": "https://www.zatopekmagazine.com/lassaut-du-maquisard/les-epreuves-de-lassaut-du-maquisard/#45km",
        "city": "Thieux",
        "slug": "l-assaut-du-maquisard"
    },
    {
        "name": "5. Antwerp Backyard Ultra",
        "country": "Belgium",
        "distance": "32h",
        "date": "27.06.2025",
        "url": "http://www.antwerpbackyardultra.be",
        "city": "Schelle",
        "lat": 51.1245635,
        "lng": 4.3361875,
        "slug": "5-antwerp-backyard-ultra"
    },
    {
        "name": "25. Trail Godefroy Bouillon",
        "country": "Belgium",
        "distance": "75km",
        "date": "14.06.2025",
        "url": "https://www.trailrun.be/trail-godefroy-bouillon/",
        "city": "Bouillon",
        "lat": 49.7949836,
        "lng": 5.0672528,
        "slug": "25-trail-godefroy-bouillon"
    },
    {
        "name": "25. Les Clochards Célestes",
        "country": "Belgium",
        "distance": "101km",
        "date": "08.06.2025",
        "url": "https://www.lescoureurscelestes.be/",
        "city": "Pepinster",
        "lat": 50.5710312,
        "lng": 5.7978592,
        "slug": "25-les-clochards-c-lestes"
    },
    {
        "name": "7th The Longest Day 50km",
        "country": "Belgium",
        "distance": "52km",
        "date": "07.06.2025",
        "url": "https://www.trailrun.be/fr/the-longest-day-trail/",
        "city": "Spa",
        "lat": 50.4920654,
        "lng": 5.8627569,
        "slug": "7th-the-longest-day-50km"
    },
    {
        "name": "18e Ohm Trail - XL",
        "country": "Belgium",
        "distance": "55km",
        "date": "01.06.2025",
        "url": "https://www.eventstrail.be/ohmtrail/",
        "city": "Aywaille",
        "lat": 50.4758998,
        "lng": 5.6763249,
        "slug": "18e-ohm-trail-xl"
    },
    {
        "name": "18e Ohm Trail - Ultra",
        "country": "Belgium",
        "distance": "80km",
        "date": "01.06.2025",
        "url": "https://www.eventstrail.be/ohmtrail/",
        "city": "Aywaille",
        "lat": 50.4758998,
        "lng": 5.6763249,
        "slug": "18e-ohm-trail-ultra"
    },
    {
        "name": "Canceled: Endurance Day Hamme 50 km (BEL)",
        "country": "Belgium",
        "distance": "50km",
        "date": "01.06.2025",
        "url": "https://www.enduranceday.be",
        "city": "Hamme",
        "lat": 51.0977642,
        "lng": 4.1377229,
        "slug": "canceled-endurance-day-hamme-50-km-bel"
    },
    {
        "name": "Canceled: Endurance Day Hamme 100 km (BEL)",
        "country": "Belgium",
        "distance": "100km",
        "date": "01.06.2025",
        "url": "https://www.enduranceday.be",
        "city": "Hamme",
        "lat": 51.0977642,
        "lng": 4.1377229,
        "slug": "canceled-endurance-day-hamme-100-km-bel"
    },
    {
        "name": "R24u Ultraloop - 3h",
        "country": "Belgium",
        "distance": "3h",
        "date": "25.05.2025",
        "url": "https://r24mechelen.be/",
        "city": "Mechelen",
        "lat": 51.0281381,
        "lng": 4.4803453,
        "slug": "r24u-ultraloop-3h"
    },
    {
        "name": "R24u Ultraloop - 6h",
        "country": "Belgium",
        "distance": "6h",
        "date": "24.05.2025",
        "url": "https://r24mechelen.be/",
        "city": "Mechelen",
        "lat": 51.0281381,
        "lng": 4.4803453,
        "slug": "r24u-ultraloop-6h"
    },
    {
        "name": "15° Grand Trail des Lacs et Châteaux 85km",
        "country": "Belgium",
        "distance": "85km",
        "date": "17.05.2025",
        "url": "https://grandtrail.be/",
        "city": "Ovifat",
        "lat": 50.4663622,
        "lng": 6.107063,
        "slug": "15-grand-trail-des-lacs-et-ch-teaux-85km"
    },
    {
        "name": "Belgian Front Memorial Trail",
        "country": "Belgium",
        "distance": "103km",
        "date": "03.05.2025",
        "url": "http://belgianfrontmemorialtrail.be",
        "city": "Messines",
        "lat": 50.759827,
        "lng": 2.8998324,
        "slug": "belgian-front-memorial-trail"
    },
    {
        "name": "5 Legends Backyard Ultra",
        "country": "Belgium",
        "distance": "116h",
        "date": "26.04.2025",
        "url": "https://www.backyardbelgium.com/",
        "city": "Retie",
        "lat": 51.2675862,
        "lng": 5.0843883,
        "slug": "5-legends-backyard-ultra"
    },
    {
        "name": "Trail des Cisterciens - 65km",
        "country": "Belgium",
        "distance": "65km",
        "date": "20.04.2025",
        "url": "http://www.traildescisterciens.be",
        "city": "Court-St-Etienne",
        "lat": 50.6443208,
        "lng": 4.5685766,
        "slug": "trail-des-cisterciens-65km"
    },
    {
        "name": "Trail des Cisterciens - 100km",
        "country": "Belgium",
        "distance": "100km",
        "date": "20.04.2025",
        "url": "http://www.traildescisterciens.be",
        "city": "Court-St-Etienne",
        "lat": 50.6443208,
        "lng": 4.5685766,
        "slug": "trail-des-cisterciens-100km"
    },
    {
        "name": "GR Provincie Trail West-Vlaanderen",
        "country": "Belgium",
        "distance": "50.1km",
        "date": "19.04.2025",
        "url": "https://my.raceresult.com/315003/info",
        "city": "Blankenberge",
        "lat": 51.3112589,
        "lng": 3.1323429,
        "slug": "gr-provincie-trail-west-vlaanderen"
    },
    {
        "name": "GR Provincie Trail Luxemburg",
        "country": "Belgium",
        "distance": "46.3km",
        "date": "23.03.2025",
        "url": "https://my.raceresult.com/314361/info",
        "city": "Messancy",
        "lat": 49.5949862,
        "lng": 5.8145736,
        "slug": "gr-provincie-trail-luxemburg"
    },
    {
        "name": "Trail des Sangliers",
        "country": "Belgium",
        "distance": "75km",
        "date": "22.03.2025",
        "url": "https://www.trailrun.be/fr/trail-des-sangliers/",
        "city": "La Roche-En-Ardenne",
        "lat": 50.1602833,
        "lng": 5.5627594,
        "slug": "trail-des-sangliers"
    },
    {
        "name": "Dplus draait door - 6h",
        "country": "Belgium",
        "distance": "6h",
        "date": "16.03.2025",
        "url": "https://dplusdinsdag.be/dplusdraaitdoor",
        "city": "Kortenberg",
        "lat": 50.8952922,
        "lng": 4.5656007,
        "slug": "dplus-draait-door-6h"
    },
    {
        "name": "LaThareé Trail  49 km",
        "country": "Belgium",
        "distance": "49km",
        "date": "15.03.2025",
        "url": "https://www.latharee-trail.be/",
        "city": "Rettigny",
        "lat": 50.1678509,
        "lng": 5.8801729,
        "slug": "lathare-trail-49-km"
    },
    {
        "name": "LaThareé Trail  56 km",
        "country": "Belgium",
        "distance": "56km",
        "date": "15.03.2025",
        "url": "https://www.latharee-trail.be/",
        "city": "Rettigny",
        "lat": 50.1678509,
        "lng": 5.8801729,
        "slug": "lathare-trail-56-km"
    },
    {
        "name": "4ème Trail de la Siberie - 50km",
        "country": "Belgium",
        "distance": "52km",
        "date": "22.02.2025",
        "url": "https://www.trail-de-la-siberie.com/",
        "city": "Profondeville",
        "lat": 50.3762043,
        "lng": 4.8675024,
        "slug": "4-me-trail-de-la-siberie-50km"
    },
    {
        "name": "4ème Trail de la Siberie - 75km",
        "country": "Belgium",
        "distance": "76km",
        "date": "22.02.2025",
        "url": "https://www.trail-de-la-siberie.com/",
        "city": "Profondeville",
        "lat": 50.3762043,
        "lng": 4.8675024,
        "slug": "4-me-trail-de-la-siberie-75km"
    },
    {
        "name": "4ème Trail de la Siberie - 100km",
        "country": "Belgium",
        "distance": "101km",
        "date": "22.02.2025",
        "url": "https://www.trail-de-la-siberie.com/",
        "city": "Profondeville",
        "lat": 50.3762043,
        "lng": 4.8675024,
        "slug": "4-me-trail-de-la-siberie-100km"
    },
    {
        "name": "4ème Trail de la Siberie - 125km",
        "country": "Belgium",
        "distance": "125km",
        "date": "22.02.2025",
        "url": "https://www.trail-de-la-siberie.com/",
        "city": "Profondeville",
        "lat": 50.3762043,
        "lng": 4.8675024,
        "slug": "4-me-trail-de-la-siberie-125km"
    },
    {
        "name": "La Magnetoise",
        "country": "Belgium",
        "distance": "59km",
        "date": "16.02.2025",
        "url": "http://lamagnetoise.be/",
        "city": "Magnee",
        "lat": 50.6028765,
        "lng": 5.6811009,
        "slug": "la-magnetoise"
    },
    {
        "name": "Houffatrail 63km",
        "country": "Belgium",
        "distance": "63km",
        "date": "25.01.2025",
        "url": "https://passionforsports.eu/en-houffatrail?count=1",
        "city": "Houffalize",
        "lat": 50.1323761,
        "lng": 5.7886928,
        "slug": "houffatrail-63km"
    },
    {
        "name": "Ultra Trail Haute Ardenne - Jour 2 - 57 km",
        "country": "Belgium",
        "distance": "57km",
        "date": "02.08.2026",
        "url": "https://www.utha.be/57km",
        "city": "Station de la Baraque de Fraiture",
        "slug": "ultra-trail-haute-ardenne-jour-2-57-km"
    },
    {
        "name": "6. Antwerp Backyard Ultra",
        "country": "Belgium",
        "distance": "32h",
        "date": "19.06.2026",
        "url": "http://www.antwerpbackyardultra.be",
        "city": "Schelle",
        "lat": 51.1245635,
        "lng": 4.3361875,
        "slug": "6-antwerp-backyard-ultra"
    },
    {
        "name": "8th The Longest Day 50km",
        "country": "Belgium",
        "distance": "50km",
        "date": "06.06.2026",
        "url": "https://www.passionforsports.eu/nl-longestday",
        "city": "Spa",
        "lat": 50.4920654,
        "lng": 5.8627569,
        "slug": "8th-the-longest-day-50km"
    },
    {
        "name": "26. Trail Godefroy Bouillon TGB 50",
        "country": "Belgium",
        "distance": "53km",
        "date": "06.06.2026",
        "url": "https://www.trailrun.be/trail-godefroy-bouillon/",
        "city": "Bouillon",
        "lat": 49.7949836,
        "lng": 5.0672528,
        "slug": "26-trail-godefroy-bouillon-tgb-50"
    },
    {
        "name": "26. Trail Godefroy Bouillon TGB 75",
        "country": "Belgium",
        "distance": "75km",
        "date": "06.06.2026",
        "url": "https://www.trailrun.be/trail-godefroy-bouillon/",
        "city": "Bouillon",
        "lat": 49.7949836,
        "lng": 5.0672528,
        "slug": "26-trail-godefroy-bouillon-tgb-75"
    },
    {
        "name": "26. Trail Godefroy Bouillon",
        "country": "Belgium",
        "distance": "100km",
        "date": "06.06.2026",
        "url": "https://www.trailrun.be/trail-godefroy-bouillon/",
        "city": "Bouillon",
        "lat": 49.7949836,
        "lng": 5.0672528,
        "slug": "26-trail-godefroy-bouillon"
    },
    {
        "name": "L.A.T Legends Ardennes Trail - La Saint Remacle Ultra",
        "country": "Belgium",
        "distance": "195km",
        "date": "01.05.2026",
        "url": "https://ultratiming.ledossard.com/inscription/index.php?id=3051",
        "city": "Ocquier",
        "lat": 50.3966356,
        "lng": 5.3961397,
        "slug": "l-a-t-legends-ardennes-trail-la-saint-remacle-ultra"
    },
    {
        "name": "6. Legends Backyard Ultra",
        "country": "Belgium",
        "distance": "116h",
        "date": "25.04.2026",
        "url": "https://www.backyardbelgium.com/",
        "city": "Retie",
        "lat": 51.2675862,
        "lng": 5.0843883,
        "slug": "6-legends-backyard-ultra"
    },
    {
        "name": "5ème Trail de la Siberie - 50km",
        "country": "Belgium",
        "distance": "52km",
        "date": "21.02.2026",
        "url": "https://www.trail-de-la-siberie.com/",
        "city": "Profondeville",
        "lat": 50.3762043,
        "lng": 4.8675024,
        "slug": "5-me-trail-de-la-siberie-50km"
    },
    {
        "name": "5ème Trail de la Siberie - 75km",
        "country": "Belgium",
        "distance": "76km",
        "date": "21.02.2026",
        "url": "https://www.trail-de-la-siberie.com/",
        "city": "Profondeville",
        "lat": 50.3762043,
        "lng": 4.8675024,
        "slug": "5-me-trail-de-la-siberie-75km"
    },
    {
        "name": "5ème Trail de la Siberie - 100km",
        "country": "Belgium",
        "distance": "101km",
        "date": "21.02.2026",
        "url": "https://www.trail-de-la-siberie.com/",
        "city": "Profondeville",
        "lat": 50.3762043,
        "lng": 4.8675024,
        "slug": "5-me-trail-de-la-siberie-100km"
    },
    {
        "name": "5ème Trail de la Siberie - 125km",
        "country": "Belgium",
        "distance": "128km",
        "date": "21.02.2026",
        "url": "https://www.trail-de-la-siberie.com/",
        "city": "Profondeville",
        "lat": 50.3762043,
        "lng": 4.8675024,
        "slug": "5-me-trail-de-la-siberie-125km"
    },
    {
        "name": "1ère Ultra Trail de la Sibérie - 160km",
        "country": "Belgium",
        "distance": "161km",
        "date": "20.02.2026",
        "url": "https://www.trail-de-la-siberie.com/",
        "city": "Profondeville",
        "lat": 50.3762043,
        "lng": 4.8675024,
        "slug": "1-re-ultra-trail-de-la-sib-rie-160km"
    },
    {
        "name": "Castle Trail Bouillon",
        "country": "Belgium",
        "distance": "50km",
        "date": "15.02.2026",
        "url": "http://www.trailrun.be",
        "city": "Bouillon",
        "lat": 49.7949836,
        "lng": 5.0672528,
        "slug": "castle-trail-bouillon"
    },
    {
        "name": "Veluwezoom Trail - Winter",
        "country": "Netherlands",
        "distance": "58km",
        "date": "29.12.2024",
        "url": "https://cairnadventures.nl/trail/winter-editie-2024-veluwezoom-trail-walk/",
        "city": "Dieren",
        "lat": 52.0526703,
        "lng": 6.1014431,
        "slug": "veluwezoom-trail-winter"
    },
    {
        "name": "2e Sint Annen 240 - 50mi",
        "country": "Netherlands",
        "distance": "50mi",
        "date": "27.12.2024",
        "url": "https://runningrunn.nl/240/2024/240km.php",
        "city": "Sint Annen",
        "lat": 53.2979462,
        "lng": 6.6652567,
        "slug": "2e-sint-annen-240-50mi"
    },
    {
        "name": "UHUT UtrechtseHeuvelUltratrail 100km - Rhenen Loop split",
        "country": "Netherlands",
        "distance": "50km",
        "date": "01.12.2024",
        "url": "https://www.trail-events.eu/EVENT-Utrechtse-Heuvelrug-Ultra-Trail-Winter-2024",
        "city": "Leersum",
        "lat": 52.0102642,
        "lng": 5.4332757,
        "slug": "uhut-utrechtseheuvelultratrail-100km-rhenen-loop-split"
    },
    {
        "name": "UHUT UtrechtseHeuvelUltratrail - Rhenen Loop",
        "country": "Netherlands",
        "distance": "50km",
        "date": "01.12.2024",
        "url": "https://www.trail-events.eu/EVENT-Utrechtse-Heuvelrug-Ultra-Trail-Winter-2024",
        "city": "Leersum",
        "lat": 52.0102642,
        "lng": 5.4332757,
        "slug": "uhut-utrechtseheuvelultratrail-rhenen-loop"
    },
    {
        "name": "Voorne's Duin Trail",
        "country": "Netherlands",
        "distance": "60km",
        "date": "01.12.2024",
        "url": "https://www.voornesduintrail.nl ",
        "city": "Oostvoorne",
        "lat": 51.914271,
        "lng": 4.1038932,
        "slug": "voorne-s-duin-trail"
    },
    {
        "name": "UHUT UtrechtseHeuvelUltratrail 100km - Doorn Loop split",
        "country": "Netherlands",
        "distance": "50km",
        "date": "30.11.2024",
        "url": "https://www.trail-events.eu/EVENT-Utrechtse-Heuvelrug-Ultra-Trail-Winter-2024",
        "city": "Leersum",
        "lat": 52.0102642,
        "lng": 5.4332757,
        "slug": "uhut-utrechtseheuvelultratrail-100km-doorn-loop-split"
    },
    {
        "name": "UHUT UtrechtseHeuvelUltratrail - Doorn Loop",
        "country": "Netherlands",
        "distance": "50km",
        "date": "30.11.2024",
        "url": "https://www.trail-events.eu/EVENT-Utrechtse-Heuvelrug-Ultra-Trail-Winter-2024",
        "city": "Leersum",
        "lat": 52.0102642,
        "lng": 5.4332757,
        "slug": "uhut-utrechtseheuvelultratrail-doorn-loop"
    },
    {
        "name": "Graef Castricum Trail Ultra 60km",
        "country": "Netherlands",
        "distance": "60km",
        "date": "24.11.2024",
        "url": "https://cairnadventures.nl/trail/graef-castricum-trail/",
        "city": "Castricum",
        "lat": 52.5496739,
        "lng": 4.6696185,
        "slug": "graef-castricum-trail-ultra-60km"
    },
    {
        "name": "LauwersmeerLoop",
        "country": "Netherlands",
        "distance": "60km",
        "date": "03.11.2024",
        "url": "https://ultragrunnen.nl/lauwersmeerloop/",
        "city": "Zoutkamp",
        "lat": 53.3369602,
        "lng": 6.3011339,
        "slug": "lauwersmeerloop"
    },
    {
        "name": "3. Gaasterland Trail",
        "country": "Netherlands",
        "distance": "50km",
        "date": "26.10.2024",
        "url": "https://gaasterlandtrail.nl/",
        "city": "Harich",
        "lat": 52.902242,
        "lng": 5.5642127,
        "slug": "3-gaasterland-trail"
    },
    {
        "name": "Indian Summer Ultra",
        "country": "Netherlands",
        "distance": "100km",
        "date": "12.10.2024",
        "url": "http://IndianSummerUltra.nl",
        "city": "Gasselte",
        "lat": 52.971916,
        "lng": 6.7921853,
        "slug": "indian-summer-ultra",
        "elevation": "500",
        "terrain": "Heathland and sand",
        "gear_recommendation": "Gaiters and sunglasses",
        "utmb_index": false,
        "language_profile": "NL/EN"
    },
    {
        "name": "Indian Summer Ultra 75 km",
        "country": "Netherlands",
        "distance": "75km",
        "date": "12.10.2024",
        "url": "http://indiansummerultra.nl",
        "city": "Gasselte",
        "lat": 52.971916,
        "lng": 6.7921853,
        "slug": "indian-summer-ultra-75-km"
    },
    {
        "name": "Indian Summer Ultra 50 km",
        "country": "Netherlands",
        "distance": "50km",
        "date": "12.10.2024",
        "url": "http://indiansummerultra.nl",
        "city": "Gasselte",
        "lat": 52.971916,
        "lng": 6.7921853,
        "slug": "indian-summer-ultra-50-km"
    },
    {
        "name": "Brekeld Runners Trail",
        "country": "Netherlands",
        "distance": "50km",
        "date": "05.10.2024",
        "url": "https://www.brekeldrunnerstrail.nl/",
        "city": "Rijssen",
        "lat": 52.3080276,
        "lng": 6.5213004,
        "slug": "brekeld-runners-trail"
    },
    {
        "name": "18. Sri Chinmoy 6-Stunden-Lauf Amsterdam",
        "country": "Netherlands",
        "distance": "6h",
        "date": "28.09.2024",
        "url": "http://nl.srichinmoyraces.org/",
        "city": "Amstelveen",
        "lat": 52.3028209,
        "lng": 4.8596844,
        "slug": "18-sri-chinmoy-6-stunden-lauf-amsterdam"
    },
    {
        "name": "Zevenheuvelentrail",
        "country": "Netherlands",
        "distance": "60km",
        "date": "21.09.2024",
        "url": "https://www.zevenheuvelentrail.nl/zevenheuvelentrail",
        "city": "Nijmegen",
        "lat": 51.8474946,
        "lng": 5.8637771,
        "slug": "zevenheuvelentrail"
    },
    {
        "name": "Zevenheuvelentrail - NK trailrunning lange trail",
        "country": "Netherlands",
        "distance": "60km",
        "date": "21.09.2024",
        "url": "https://www.zevenheuvelentrail.nl/nk-trailrunning",
        "city": "Nijmegen",
        "lat": 51.8474946,
        "lng": 5.8637771,
        "slug": "zevenheuvelentrail-nk-trailrunning-lange-trail"
    },
    {
        "name": "48. RUN Winschoten 100 km - open race",
        "country": "Netherlands",
        "distance": "100km",
        "date": "14.09.2024",
        "url": "http://runwinschoten.nl",
        "city": "Winschoten",
        "lat": 53.143001,
        "lng": 7.0380717,
        "slug": "48-run-winschoten-100-km-open-race"
    },
    {
        "name": "48. RUN Winschoten 50 km - open race",
        "country": "Netherlands",
        "distance": "50km",
        "date": "14.09.2024",
        "url": "http://www.runwinschoten.nl",
        "city": "Winschoten",
        "lat": 53.143001,
        "lng": 7.0380717,
        "slug": "48-run-winschoten-50-km-open-race"
    },
    {
        "name": "48. RUN Winschoten 100 km - Nederlands Kampioenschap",
        "country": "Netherlands",
        "distance": "100km",
        "date": "14.09.2024",
        "url": "http://runwinschoten.nl",
        "city": "Winschoten",
        "lat": 53.143001,
        "lng": 7.0380717,
        "slug": "48-run-winschoten-100-km-nederlands-kampioenschap"
    },
    {
        "name": "48. RUN Winschoten 50 km - Nederlands Kampioenschap",
        "country": "Netherlands",
        "distance": "50km",
        "date": "14.09.2024",
        "url": "http://www.runwinschoten.nl",
        "city": "Winschoten",
        "lat": 53.143001,
        "lng": 7.0380717,
        "slug": "48-run-winschoten-50-km-nederlands-kampioenschap"
    },
    {
        "name": "De 6 Uur van Deventer",
        "country": "Netherlands",
        "distance": "6h",
        "date": "13.07.2024",
        "url": "http://marathonplus.nl",
        "city": "Deventer",
        "lat": 52.2694897,
        "lng": 6.2364886,
        "slug": "de-6-uur-van-deventer"
    },
    {
        "name": "De 6 Uur van Deventer - 50km Split",
        "country": "Netherlands",
        "distance": "50km",
        "date": "13.07.2024",
        "url": "http://marathonplus.nl",
        "city": "Deventer",
        "lat": 52.2694897,
        "lng": 6.2364886,
        "slug": "de-6-uur-van-deventer-50km-split"
    },
    {
        "name": "VechtdalTrail",
        "country": "Netherlands",
        "distance": "50km",
        "date": "06.07.2024",
        "url": "https://vechtdaltrail.nl/",
        "city": "Ommen",
        "lat": 52.510347,
        "lng": 6.4524247,
        "slug": "vechtdaltrail"
    },
    {
        "name": "23 Zes uur van de Haarlemmermeer",
        "country": "Netherlands",
        "distance": "6h",
        "date": "29.06.2024",
        "url": "https://avhaarlemmermeer.nl/6uur/",
        "city": "Hoofddorp",
        "lat": 52.305554,
        "lng": 4.6926644,
        "slug": "23-zes-uur-van-de-haarlemmermeer"
    },
    {
        "name": "Rondom Stad",
        "country": "Netherlands",
        "distance": "66km",
        "date": "22.06.2024",
        "url": "https://runningrunn.nl/rondomstad/2024/informatie.php",
        "city": "Sint Annen",
        "lat": 53.2979462,
        "lng": 6.6652567,
        "slug": "rondom-stad"
    },
    {
        "name": "3rd Liberation Trail - stage 5: Eindhoven - Groesbeek",
        "country": "Netherlands",
        "distance": "81km",
        "date": "15.06.2024",
        "url": "https://liberationtrail.org/",
        "city": "Eindhoven",
        "lat": 51.4392648,
        "lng": 5.478633,
        "slug": "3rd-liberation-trail-stage-5-eindhoven-groesbeek"
    },
    {
        "name": "3 Pierewaai Summer Beach Trail",
        "country": "Netherlands",
        "distance": "50km",
        "date": "01.06.2024",
        "url": "https://pierewaaitrail.nl/",
        "city": "IJmuiden",
        "lat": 52.4574236,
        "lng": 4.6111981,
        "slug": "3-pierewaai-summer-beach-trail"
    },
    {
        "name": "Linie1629ultra",
        "country": "Netherlands",
        "distance": "50km",
        "date": "01.06.2024",
        "url": "http://Linie1629ultra.nl",
        "city": "Vught",
        "lat": 51.6511806,
        "lng": 5.2368001,
        "slug": "linie1629ultra"
    },
    {
        "name": "Amerongse Berg Ultra 50k",
        "country": "Netherlands",
        "distance": "50km",
        "date": "26.05.2024",
        "url": "https://www.trail-events.eu/EVENT-Amerongse-Berg-Ultra-26-05-2024",
        "city": "Overberg",
        "lat": 52.0390484,
        "lng": 5.4964645,
        "slug": "amerongse-berg-ultra-50k"
    },
    {
        "name": "2de Hel van Westeremden, een klein paradijs",
        "country": "Netherlands",
        "distance": "45km",
        "date": "25.05.2024",
        "url": "https://runningrunn.nl/hvw/2024/hvw.php",
        "city": "Sint Annen",
        "lat": 53.2979462,
        "lng": 6.6652567,
        "slug": "2de-hel-van-westeremden-een-klein-paradijs"
    },
    {
        "name": "VAM12",
        "country": "Netherlands",
        "distance": "12h",
        "date": "25.05.2024",
        "url": "https://runforestrun.nl/vam",
        "city": "Wijster",
        "lat": 52.8148592,
        "lng": 6.5163531,
        "slug": "vam12"
    },
    {
        "name": "VAM8",
        "country": "Netherlands",
        "distance": "8h",
        "date": "25.05.2024",
        "url": "https://runforestrun.nl/vam",
        "city": "Wijster",
        "lat": 52.8148592,
        "lng": 6.5163531,
        "slug": "vam8"
    },
    {
        "name": "12-Uurs Run Middelburg",
        "country": "Netherlands",
        "distance": "13h",
        "date": "25.05.2024",
        "url": "https://www.facebook.com/events/1465860133997868",
        "city": "Middelburg",
        "lat": 51.4996784,
        "lng": 3.6137371,
        "slug": "12-uurs-run-middelburg"
    },
    {
        "name": "18. Sri Chinmoy 50 km-Lauf Amsterdam",
        "country": "Netherlands",
        "distance": "50km",
        "date": "24.05.2024",
        "url": "http://nl.srichinmoyraces.org/",
        "city": "Amstelveen",
        "lat": 52.3028209,
        "lng": 4.8596844,
        "slug": "18-sri-chinmoy-50-km-lauf-amsterdam"
    },
    {
        "name": "18. Sri Chinmoy 100km-Lauf Amsterdam",
        "country": "Netherlands",
        "distance": "100km",
        "date": "24.05.2024",
        "url": "http://nl.srichinmoyraces.org/",
        "city": "Amstelveen",
        "lat": 52.3028209,
        "lng": 4.8596844,
        "slug": "18-sri-chinmoy-100km-lauf-amsterdam"
    },
    {
        "name": "3 Pallas 67 Ultrameerdaagse - stage 5 - Arnhem - Wageningen",
        "country": "Netherlands",
        "distance": "51km",
        "date": "12.05.2024",
        "url": "https://www.pallas67.nl/p67/?page_id=25316",
        "city": "Arnhem",
        "lat": 51.984257,
        "lng": 5.9108573,
        "slug": "3-pallas-67-ultrameerdaagse-stage-5-arnhem-wageningen"
    },
    {
        "name": "80 van Balk",
        "country": "Netherlands",
        "distance": "80km",
        "date": "11.05.2024",
        "url": "http://www.gaasterlandrun.nl",
        "city": "BALK",
        "lat": 52.8989296,
        "lng": 5.5830455,
        "slug": "80-van-balk"
    },
    {
        "name": "Salomon Koning van Spanje Trail - 80km",
        "country": "Netherlands",
        "distance": "81km",
        "date": "11.05.2024",
        "url": "https://www.mudsweattrails.nl/koningvanspanje/",
        "city": "Gulpen",
        "lat": 50.8139879,
        "lng": 5.8899585,
        "slug": "salomon-koning-van-spanje-trail-80km"
    },
    {
        "name": "3 Pallas 67 Ultrameerdaagse - stage 4 - Arnhem - Veluwe",
        "country": "Netherlands",
        "distance": "51km",
        "date": "11.05.2024",
        "url": "https://www.pallas67.nl/p67/?page_id=25316",
        "city": "Arnhem",
        "lat": 51.984257,
        "lng": 5.9108573,
        "slug": "3-pallas-67-ultrameerdaagse-stage-4-arnhem-veluwe"
    },
    {
        "name": "3 Pallas 67 Ultrameerdaagse - stage 3 - Arnhem - Lobith",
        "country": "Netherlands",
        "distance": "66km",
        "date": "10.05.2024",
        "url": "https://www.pallas67.nl/p67/?page_id=25316",
        "city": "Arnhem",
        "lat": 51.984257,
        "lng": 5.9108573,
        "slug": "3-pallas-67-ultrameerdaagse-stage-3-arnhem-lobith"
    },
    {
        "name": "3 Pallas 67 Ultrameerdaagse - stage 2 - Arnhem - Doesburg",
        "country": "Netherlands",
        "distance": "51km",
        "date": "09.05.2024",
        "url": "https://www.pallas67.nl/p67/?page_id=25316",
        "city": "Arnhem",
        "lat": 51.984257,
        "lng": 5.9108573,
        "slug": "3-pallas-67-ultrameerdaagse-stage-2-arnhem-doesburg"
    },
    {
        "name": "3 Pallas 67 Ultrameerdaagse - stage 1 - Wageningen - Arnhem",
        "country": "Netherlands",
        "distance": "51km",
        "date": "08.05.2024",
        "url": "https://www.pallas67.nl/p67/?page_id=25316",
        "city": "Wageningen",
        "lat": 51.9663016,
        "lng": 5.6662814,
        "slug": "3-pallas-67-ultrameerdaagse-stage-1-wageningen-arnhem"
    },
    {
        "name": "3. Petranpad Ultra Trail 60k",
        "country": "Netherlands",
        "distance": "64km",
        "date": "04.05.2024",
        "url": "https://petranultra.nl/",
        "city": "Meerlo",
        "lat": 51.51187,
        "lng": 6.0869555,
        "slug": "3-petranpad-ultra-trail-60k"
    },
    {
        "name": "5 Petranpad Ultra Run 112k",
        "country": "Netherlands",
        "distance": "112km",
        "date": "04.05.2024",
        "url": "https://petranultra.nl/",
        "city": "Meerlo",
        "lat": 51.51187,
        "lng": 6.0869555,
        "slug": "5-petranpad-ultra-run-112k"
    },
    {
        "name": "38e Eemlake Run (Eemmeerloop)",
        "country": "Netherlands",
        "distance": "50km",
        "date": "20.04.2024",
        "url": "http://www.quovadisbunschoten.nl",
        "city": "Bunschoten",
        "lat": 52.2391743,
        "lng": 5.3734101,
        "slug": "38e-eemlake-run-eemmeerloop"
    },
    {
        "name": "Pegasus Ultra Trail",
        "country": "Netherlands",
        "distance": "50km",
        "date": "20.04.2024",
        "url": "http://www.trailclub.nl",
        "city": "Ede",
        "lat": 52.0716826,
        "lng": 5.7455106,
        "slug": "pegasus-ultra-trail"
    },
    {
        "name": "Runforestrun Hart van Drenthe",
        "country": "Netherlands",
        "distance": "52km",
        "date": "13.04.2024",
        "url": "https://runforestrun.nl/hartvandrenthe/",
        "city": "Ellertshaar",
        "lat": 52.8964673,
        "lng": 6.7409769,
        "slug": "runforestrun-hart-van-drenthe"
    },
    {
        "name": "Cauberg Trail",
        "country": "Netherlands",
        "distance": "54km",
        "date": "30.03.2024",
        "url": "https://www.caubergtrail.nl/",
        "city": "Valkenburg",
        "lat": 50.8647531,
        "lng": 5.8312518,
        "slug": "cauberg-trail"
    },
    {
        "name": "3 6hrs Sittard - 50km Split",
        "country": "Netherlands",
        "distance": "50km",
        "date": "24.03.2024",
        "url": "https://www.24hrssittard.com/",
        "city": "Sittard",
        "lat": 50.9974235,
        "lng": 5.8666627,
        "slug": "3-6hrs-sittard-50km-split"
    },
    {
        "name": "17e De Zestig van Texel",
        "country": "Netherlands",
        "distance": "60km",
        "date": "24.03.2024",
        "url": "https://dezestigvantexel.nl/",
        "city": "Den Hoorn (Texel)",
        "slug": "17e-de-zestig-van-texel"
    },
    {
        "name": "17e De 120 van Texel",
        "country": "Netherlands",
        "distance": "120km",
        "date": "24.03.2024",
        "url": "https://dezestigvantexel.nl/",
        "city": "Den Burg (Texel)",
        "slug": "17e-de-120-van-texel"
    },
    {
        "name": "3. 6hrs Sittard",
        "country": "Netherlands",
        "distance": "6h",
        "date": "24.03.2024",
        "url": "https://www.24hrssittard.com/",
        "city": "Sittard",
        "lat": 50.9974235,
        "lng": 5.8666627,
        "slug": "3-6hrs-sittard"
    },
    {
        "name": "3. 24hrs Sittard - 50km Split",
        "country": "Netherlands",
        "distance": "50km",
        "date": "23.03.2024",
        "url": "https://www.24hrssittard.com/",
        "city": "Sittard",
        "lat": 50.9974235,
        "lng": 5.8666627,
        "slug": "3-24hrs-sittard-50km-split"
    },
    {
        "name": "4. 12hrs Sittard - 50km Split",
        "country": "Netherlands",
        "distance": "50km",
        "date": "23.03.2024",
        "url": "https://www.24hrssittard.com/",
        "city": "Sittard",
        "lat": 50.9974235,
        "lng": 5.8666627,
        "slug": "4-12hrs-sittard-50km-split"
    },
    {
        "name": "10e Salomon Vuurtorentrail Festival Ameland 60km",
        "country": "Netherlands",
        "distance": "60km",
        "date": "17.03.2024",
        "url": "https://cairnadventures.nl/trail/vuurtorentrail-festival-ameland/",
        "city": "Hollum Ameland",
        "slug": "10e-salomon-vuurtorentrail-festival-ameland-60km"
    },
    {
        "name": "11. SallandTrail 80 km (50 Mijl)",
        "country": "Netherlands",
        "distance": "80km",
        "date": "09.03.2024",
        "url": "http://www.sallandtrail.nl/",
        "city": "Nijverdal",
        "lat": 52.3592015,
        "lng": 6.4654075,
        "slug": "11-sallandtrail-80-km-50-mijl"
    },
    {
        "name": "11. SallandTrail 50 km",
        "country": "Netherlands",
        "distance": "50km",
        "date": "09.03.2024",
        "url": "http://www.sallandtrail.nl/",
        "city": "Nijverdal",
        "lat": 52.3592015,
        "lng": 6.4654075,
        "slug": "11-sallandtrail-50-km"
    },
    {
        "name": "Trailrun Terschelling",
        "country": "Netherlands",
        "distance": "50km",
        "date": "03.03.2024",
        "url": "http://www.trailrunterschelling.nl/",
        "city": "West-Terschelling",
        "lat": 53.3613027,
        "lng": 5.2160421,
        "slug": "trailrun-terschelling"
    },
    {
        "name": "3 65 van Walcheren",
        "country": "Netherlands",
        "distance": "65km",
        "date": "03.03.2024",
        "url": "http://65vanwalcheren.nl",
        "city": "Vrouwenpolder",
        "lat": 51.576602,
        "lng": 3.6165776,
        "slug": "3-65-van-walcheren"
    },
    {
        "name": "5. Bosbokken Trail",
        "country": "Netherlands",
        "distance": "47km",
        "date": "25.02.2024",
        "url": "https://www.bosbokken.nl/",
        "city": "Burgh-Haamstede",
        "lat": 51.7022441,
        "lng": 3.722061,
        "slug": "5-bosbokken-trail"
    },
    {
        "name": "Dutch Coast Ultra Run by Night 50km",
        "country": "Netherlands",
        "distance": "50km",
        "date": "09.02.2024",
        "url": "https://www.facebook.com/groups/140119496133094",
        "city": "Den Helder",
        "lat": 52.9529894,
        "lng": 4.8267592,
        "slug": "dutch-coast-ultra-run-by-night-50km"
    },
    {
        "name": "Dutch Coast Ultra Run by Night 75km",
        "country": "Netherlands",
        "distance": "75km",
        "date": "09.02.2024",
        "url": "https://www.facebook.com/groups/140119496133094",
        "city": "Den Helder",
        "lat": 52.9529894,
        "lng": 4.8267592,
        "slug": "dutch-coast-ultra-run-by-night-75km"
    },
    {
        "name": "5th Drielandenpunt Winter Trail",
        "country": "Netherlands",
        "distance": "50km",
        "date": "04.02.2024",
        "url": "https://www.passionforsports.eu/nl-drielandenpunttrailwinter?count=1",
        "city": "Vaals",
        "lat": 50.7781016,
        "lng": 5.9810696,
        "slug": "5th-drielandenpunt-winter-trail"
    },
    {
        "name": "Leenderbos Ultra Trail",
        "country": "Netherlands",
        "distance": "50km",
        "date": "28.01.2024",
        "url": "https://www.trail-events.eu/EVENT-Leenderbos-Ultra-Trail-29-01-2023",
        "city": "Leende",
        "lat": 51.3484037,
        "lng": 5.5518897,
        "slug": "leenderbos-ultra-trail"
    },
    {
        "name": "11. Pierewaai Trail",
        "country": "Netherlands",
        "distance": "45km",
        "date": "20.01.2024",
        "url": "https://pierewaaitrail.nl",
        "city": "IJmuiden",
        "lat": 52.4574236,
        "lng": 4.6111981,
        "slug": "11-pierewaai-trail"
    },
    {
        "name": "Friends of the SM run ultra",
        "country": "Netherlands",
        "distance": "45km",
        "date": "27.12.2025",
        "url": "http://www.bemelenbeweegt.nl",
        "city": "Meerssen",
        "lat": 50.9047092,
        "lng": 5.7352078,
        "slug": "friends-of-the-sm-run-ultra"
    },
    {
        "name": "West Coast Challenge - Halfway",
        "country": "Netherlands",
        "distance": "62km",
        "date": "13.12.2025",
        "url": "https://www.westcoastchallenge.nl/",
        "city": "Wijk aan Zee",
        "lat": 52.4939272,
        "lng": 4.593759,
        "slug": "west-coast-challenge-halfway"
    },
    {
        "name": "7. Graef Castricum Trail Ultra 60km",
        "country": "Netherlands",
        "distance": "60km",
        "date": "23.11.2025",
        "url": "https://cairnadventures.nl/trail/graef-castricum-trail/",
        "city": "Castricum",
        "lat": 52.5496739,
        "lng": 4.6696185,
        "slug": "7-graef-castricum-trail-ultra-60km"
    },
    {
        "name": "4. Gaasterland Trail",
        "country": "Netherlands",
        "distance": "50km",
        "date": "25.10.2025",
        "url": "https://gaasterlandtrail.nl/",
        "city": "Harich",
        "lat": 52.902242,
        "lng": 5.5642127,
        "slug": "4-gaasterland-trail"
    },
    {
        "name": "Dutch Backyard Ultra",
        "country": "Netherlands",
        "distance": "36h",
        "date": "18.10.2025",
        "url": "https://www.trail-events.eu/EVENT-Dutch-Backyard-Ultra-10-2025#/",
        "city": "Zeewolde",
        "lat": 52.331111,
        "lng": 5.5430312,
        "slug": "dutch-backyard-ultra"
    },
    {
        "name": "Doelgericht deur Stad",
        "country": "Netherlands",
        "distance": "50km",
        "date": "04.10.2025",
        "url": "https://ultragrunnen.nl/doelgericht-deur-stad/",
        "city": "Groningen",
        "lat": 53.2190652,
        "lng": 6.5680077,
        "slug": "doelgericht-deur-stad"
    },
    {
        "name": "Fun Runner",
        "country": "Netherlands",
        "distance": "47.4km",
        "date": "04.10.2025",
        "url": "http://funrunner-heerlen.nl",
        "city": "Berg en Dal",
        "lat": 51.8113566,
        "lng": 5.9170257,
        "slug": "fun-runner"
    },
    {
        "name": "Devil's Ultra",
        "country": "Netherlands",
        "distance": "24h",
        "date": "04.10.2025",
        "url": "https://devilstrail.nl/evenementen/devils-trail-utrechtse-heuvelrug/",
        "city": "Doornse",
        "slug": "devil-s-ultra"
    },
    {
        "name": "49. RUN Winschoten 100 km",
        "country": "Netherlands",
        "distance": "100km",
        "date": "13.09.2025",
        "url": "http://www.runwinschoten.nl",
        "city": "Winschoten",
        "lat": 53.143001,
        "lng": 7.0380717,
        "slug": "49-run-winschoten-100-km"
    },
    {
        "name": "49. RUN Winschoten 50 km",
        "country": "Netherlands",
        "distance": "50km",
        "date": "13.09.2025",
        "url": "http://www.runwinschoten.nl",
        "city": "Winschoten",
        "lat": 53.143001,
        "lng": 7.0380717,
        "slug": "49-run-winschoten-50-km"
    },
    {
        "name": "Ommetjesultra 55km",
        "country": "Netherlands",
        "distance": "55km",
        "date": "07.09.2025",
        "url": "https://ommetjesultra.nl",
        "city": "Wijchen",
        "lat": 51.8202529,
        "lng": 5.6960903,
        "slug": "ommetjesultra-55km"
    },
    {
        "name": "1 Groote Heide Ultra",
        "country": "Netherlands",
        "distance": "50km",
        "date": "30.08.2025",
        "url": "https://www.trail-events.eu/EVENT-Groote-Heide-Ultra-30-08-2025",
        "city": "Leende, Noord-Brabant",
        "slug": "1-groote-heide-ultra"
    },
    {
        "name": "Eddy 60 Ultra",
        "country": "Netherlands",
        "distance": "60km",
        "date": "27.07.2025",
        "url": "https://mdlopers.nl/zondag-27-juli-2025-eddy-60-marathon-assen-e-o/",
        "city": "Assen",
        "lat": 52.997225,
        "lng": 6.5506458,
        "slug": "eddy-60-ultra"
    },
    {
        "name": "VUT100 (Veluwse Ultra Trail) - 50km zuid",
        "country": "Netherlands",
        "distance": "50km",
        "date": "26.07.2025",
        "url": "https://www.trail-events.eu/EVENT-Veluwse-Ultra-Trail-VUT100-26-07-2025",
        "city": "Elspeet",
        "lat": 52.2910649,
        "lng": 5.7884632,
        "slug": "vut100-veluwse-ultra-trail-50km-zuid"
    },
    {
        "name": "VUT100 (Veluwse Ultra Trail) - 50km noord",
        "country": "Netherlands",
        "distance": "50km",
        "date": "26.07.2025",
        "url": "https://www.trail-events.eu/EVENT-Veluwse-Ultra-Trail-VUT100-26-07-2025",
        "city": "Elspeet",
        "lat": 52.2910649,
        "lng": 5.7884632,
        "slug": "vut100-veluwse-ultra-trail-50km-noord"
    },
    {
        "name": "VUT100 (Veluwse Ultra Trail) - 75km",
        "country": "Netherlands",
        "distance": "75km",
        "date": "26.07.2025",
        "url": "https://www.trail-events.eu/EVENT-Veluwse-Ultra-Trail-VUT100-26-07-2025",
        "city": "Elspeet",
        "lat": 52.2910649,
        "lng": 5.7884632,
        "slug": "vut100-veluwse-ultra-trail-75km"
    },
    {
        "name": "VUT100 (Veluwse Ultra Trail) - 100km",
        "country": "Netherlands",
        "distance": "100km",
        "date": "26.07.2025",
        "url": "https://www.trail-events.eu/EVENT-Veluwse-Ultra-Trail-VUT100-26-07-2025",
        "city": "Elspeet",
        "lat": 52.2910649,
        "lng": 5.7884632,
        "slug": "vut100-veluwse-ultra-trail-100km"
    },
    {
        "name": "24 Zes uur van de Haarlemmermeer",
        "country": "Netherlands",
        "distance": "6h",
        "date": "28.06.2025",
        "url": "https://avhaarlemmermeer.nl/6uur/",
        "city": "Hoofddorp",
        "lat": 52.305554,
        "lng": 4.6926644,
        "slug": "24-zes-uur-van-de-haarlemmermeer"
    },
    {
        "name": "BUT100 (Brabants UltraTrail) - 50 km Zuid",
        "country": "Netherlands",
        "distance": "50km",
        "date": "28.06.2025",
        "url": "https://www.trail-events.eu/EVENT-Brabantse-Ultra-Trail-BUT100-28-06-2025",
        "city": "Leende",
        "lat": 51.3484037,
        "lng": 5.5518897,
        "slug": "but100-brabants-ultratrail-50-km-zuid"
    },
    {
        "name": "BUT100 (Brabants UltraTrail) - 50 km Noord",
        "country": "Netherlands",
        "distance": "50km",
        "date": "28.06.2025",
        "url": "https://www.trail-events.eu/EVENT-Brabantse-Ultra-Trail-BUT100-28-06-2025",
        "city": "Leende",
        "lat": 51.3484037,
        "lng": 5.5518897,
        "slug": "but100-brabants-ultratrail-50-km-noord"
    },
    {
        "name": "BUT100 (Brabants UltraTrail) - 75 km",
        "country": "Netherlands",
        "distance": "75km",
        "date": "28.06.2025",
        "url": "https://www.trail-events.eu/EVENT-Brabantse-Ultra-Trail-BUT100-28-06-2025",
        "city": "Leende",
        "lat": 51.3484037,
        "lng": 5.5518897,
        "slug": "but100-brabants-ultratrail-75-km"
    },
    {
        "name": "BUT100 (Brabants UltraTrail) - 100 km",
        "country": "Netherlands",
        "distance": "100km",
        "date": "28.06.2025",
        "url": "https://www.trail-events.eu/EVENT-Brabantse-Ultra-Trail-BUT100-28-06-2025",
        "city": "Leende",
        "lat": 51.3484037,
        "lng": 5.5518897,
        "slug": "but100-brabants-ultratrail-100-km"
    },
    {
        "name": "4 Pierewaai Summer Beach Trail",
        "country": "Netherlands",
        "distance": "50km",
        "date": "21.06.2025",
        "url": "https://pierewaaitrail.nl/",
        "city": "IJmuiden",
        "lat": 52.4574236,
        "lng": 4.6111981,
        "slug": "4-pierewaai-summer-beach-trail"
    },
    {
        "name": "3. Rondom Stad",
        "country": "Netherlands",
        "distance": "70km",
        "date": "21.06.2025",
        "url": "https://runningrunn.nl/rondomstad/2025/informatie.php",
        "city": "Sint Annen",
        "lat": 53.2979462,
        "lng": 6.6652567,
        "slug": "3-rondom-stad"
    },
    {
        "name": "4th Liberation Trail - stage 5: Eindhoven - Nijmegen",
        "country": "Netherlands",
        "distance": "81km",
        "date": "14.06.2025",
        "url": "https://liberationtrail.org/",
        "city": "Eindhoven",
        "lat": 51.4392648,
        "lng": 5.478633,
        "slug": "4th-liberation-trail-stage-5-eindhoven-nijmegen"
    },
    {
        "name": "Marathon van Kerkwerve",
        "country": "Netherlands",
        "distance": "45.8km",
        "date": "14.06.2025",
        "url": "http://www.funrunner-heerlen.nl/kerkwerve-marathon-45-8-km.pdf",
        "city": "Kerkwerve",
        "lat": 51.6863988,
        "lng": 3.8994996,
        "slug": "marathon-van-kerkwerve"
    },
    {
        "name": "Dik doen in de Toen",
        "country": "Netherlands",
        "distance": "50km",
        "date": "09.06.2025",
        "url": "https://ultragrunnen.nl/dik-doen-in-de-toen/",
        "city": "Groningen",
        "lat": 53.2190652,
        "lng": 6.5680077,
        "slug": "dik-doen-in-de-toen"
    },
    {
        "name": "5 Linie1629ultra",
        "country": "Netherlands",
        "distance": "50km",
        "date": "07.06.2025",
        "url": "http://Linie1629ultra.nl",
        "city": "Vught",
        "lat": 51.6511806,
        "lng": 5.2368001,
        "slug": "5-linie1629ultra"
    },
    {
        "name": "4 Pallas 67 Ultrameerdaagse - stage 5",
        "country": "Netherlands",
        "distance": "52km",
        "date": "01.06.2025",
        "url": "https://www.pallas67.nl/p67/?page_id=25316",
        "city": "Heerlen",
        "lat": 50.8775239,
        "lng": 5.9815066,
        "slug": "4-pallas-67-ultrameerdaagse-stage-5"
    },
    {
        "name": "4 Pallas 67 Ultrameerdaagse - stage 4",
        "country": "Netherlands",
        "distance": "52.5km",
        "date": "31.05.2025",
        "url": "https://www.pallas67.nl/p67/?page_id=25316",
        "city": "Heerlen",
        "lat": 50.8775239,
        "lng": 5.9815066,
        "slug": "4-pallas-67-ultrameerdaagse-stage-4"
    },
    {
        "name": "4 Pallas 67 Ultrameerdaagse - stage 3",
        "country": "Netherlands",
        "distance": "54.5km",
        "date": "30.05.2025",
        "url": "https://www.pallas67.nl/p67/?page_id=25316",
        "city": "Heerlen",
        "lat": 50.8775239,
        "lng": 5.9815066,
        "slug": "4-pallas-67-ultrameerdaagse-stage-3"
    },
    {
        "name": "4 Pallas 67 Ultrameerdaagse - stage 2",
        "country": "Netherlands",
        "distance": "53.2km",
        "date": "29.05.2025",
        "url": "https://www.pallas67.nl/p67/?page_id=25316",
        "city": "Heerlen",
        "lat": 50.8775239,
        "lng": 5.9815066,
        "slug": "4-pallas-67-ultrameerdaagse-stage-2"
    },
    {
        "name": "4 Pallas 67 Ultrameerdaagse - stage 1",
        "country": "Netherlands",
        "distance": "58km",
        "date": "28.05.2025",
        "url": "https://www.pallas67.nl/p67/?page_id=25316",
        "city": "Heerlen",
        "lat": 50.8775239,
        "lng": 5.9815066,
        "slug": "4-pallas-67-ultrameerdaagse-stage-1"
    },
    {
        "name": "UHUT UtrechtseHeuvelUltratrail 75 km - Spring Edition",
        "country": "Netherlands",
        "distance": "75km",
        "date": "24.05.2025",
        "url": "https://www.trail-events.eu/EVENT-Utrechtse-Heuvelrug-Ultra-Trail-UHUT100-24-05-2025",
        "city": "Leersum",
        "lat": 52.0102642,
        "lng": 5.4332757,
        "slug": "uhut-utrechtseheuvelultratrail-75-km-spring-edition"
    },
    {
        "name": "19. Sri Chinmoy 100km-Lauf Amsterdam",
        "country": "Netherlands",
        "distance": "100km",
        "date": "24.05.2025",
        "url": "http://nl.srichinmoyraces.org/",
        "city": "Amstelveen",
        "lat": 52.3028209,
        "lng": 4.8596844,
        "slug": "19-sri-chinmoy-100km-lauf-amsterdam"
    },
    {
        "name": "19. Sri Chinmoy 50 km-Lauf Amsterdam",
        "country": "Netherlands",
        "distance": "50km",
        "date": "24.05.2025",
        "url": "http://nl.srichinmoyraces.org/",
        "city": "Amstelveen",
        "lat": 52.3028209,
        "lng": 4.8596844,
        "slug": "19-sri-chinmoy-50-km-lauf-amsterdam"
    },
    {
        "name": "UHUT UtrechtseHeuvelUltratrail 50km",
        "country": "Netherlands",
        "distance": "50km",
        "date": "24.05.2025",
        "url": "https://www.trail-events.eu/EVENT-Utrechtse-Heuvelrug-Ultra-Trail-UHUT100-24-05-2025",
        "city": "Leersum",
        "lat": 52.0102642,
        "lng": 5.4332757,
        "slug": "uhut-utrechtseheuvelultratrail-50km"
    },
    {
        "name": "UHUT UtrechtseHeuvelUltratrail 100km",
        "country": "Netherlands",
        "distance": "100km",
        "date": "24.05.2025",
        "url": "https://www.trail-events.eu/EVENT-Utrechtse-Heuvelrug-Ultra-Trail-UHUT100-24-05-2025",
        "city": "Leersum",
        "lat": 52.0102642,
        "lng": 5.4332757,
        "slug": "uhut-utrechtseheuvelultratrail-100km"
    },
    {
        "name": "Salomon Koning van Spanje Trail - 72km",
        "country": "Netherlands",
        "distance": "72km",
        "date": "17.05.2025",
        "url": "https://www.mudsweattrails.nl/koningvanspanje/",
        "city": "Gulpen",
        "lat": 50.8139879,
        "lng": 5.8899585,
        "slug": "salomon-koning-van-spanje-trail-72km"
    },
    {
        "name": "Salomon Koning van Spanje Trail - 101km",
        "country": "Netherlands",
        "distance": "101km",
        "date": "17.05.2025",
        "url": "https://www.mudsweattrails.nl/koningvanspanje/",
        "city": "Gulpen",
        "lat": 50.8139879,
        "lng": 5.8899585,
        "slug": "salomon-koning-van-spanje-trail-101km"
    },
    {
        "name": "4. 6hrs Sittard - 50km Split",
        "country": "Netherlands",
        "distance": "50km",
        "date": "04.05.2025",
        "url": "https://www.24hrssittard.com/",
        "city": "Sittard",
        "lat": 50.9974235,
        "lng": 5.8666627,
        "slug": "4-6hrs-sittard-50km-split"
    },
    {
        "name": "4. 6hrs Sittard",
        "country": "Netherlands",
        "distance": "6h",
        "date": "04.05.2025",
        "url": "https://www.24hrssittard.com/",
        "city": "Sittard",
        "lat": 50.9974235,
        "lng": 5.8666627,
        "slug": "4-6hrs-sittard"
    },
    {
        "name": "6 Petranpad Ultra Run 112k",
        "country": "Netherlands",
        "distance": "112km",
        "date": "02.05.2025",
        "url": "https://petranultra.nl/",
        "city": "Meerlo",
        "lat": 51.51187,
        "lng": 6.0869555,
        "slug": "6-petranpad-ultra-run-112k"
    },
    {
        "name": "Hollands Duin Ultra",
        "country": "Netherlands",
        "distance": "50km",
        "date": "26.04.2025",
        "url": "https://www.trail-events.eu/EVENT-Hollands-Duin-Ultra-26-04-2025",
        "city": "Noordwijk",
        "lat": 52.2410856,
        "lng": 4.4461969,
        "slug": "hollands-duin-ultra"
    },
    {
        "name": "39e Eemlake Run (Eemmeerloop)",
        "country": "Netherlands",
        "distance": "50km",
        "date": "12.04.2025",
        "url": "http://www.quovadisbunschoten.nl",
        "city": "Bunschoten",
        "lat": 52.2391743,
        "lng": 5.3734101,
        "slug": "39e-eemlake-run-eemmeerloop"
    },
    {
        "name": "Stadspark Ultra",
        "country": "Netherlands",
        "distance": "6h",
        "date": "11.04.2025",
        "url": "https://forms.gle/eJC9gB8Z19LY3swD6",
        "city": "Groningen",
        "lat": 53.2190652,
        "lng": 6.5680077,
        "slug": "stadspark-ultra"
    },
    {
        "name": "5. Dinah Might 100km Ultra Run",
        "country": "Netherlands",
        "distance": "100km",
        "date": "05.04.2025",
        "url": "https://www.facebook.com/events/1913917769103717/",
        "city": "Emmeloord",
        "lat": 52.7087448,
        "lng": 5.7466367,
        "slug": "5-dinah-might-100km-ultra-run"
    },
    {
        "name": "5. Dinah Might 50 Miles Ultra Run",
        "country": "Netherlands",
        "distance": "80km",
        "date": "05.04.2025",
        "url": "https://www.facebook.com/events/1913917769103717/",
        "city": "Emmeloord",
        "lat": 52.7087448,
        "lng": 5.7466367,
        "slug": "5-dinah-might-50-miles-ultra-run"
    },
    {
        "name": "Brabantse Vennen Ultra",
        "country": "Netherlands",
        "distance": "50km",
        "date": "29.03.2025",
        "url": "https://www.trail-events.eu/EVENT-Brabantse-Vennen-Ultra-29-03-2025",
        "city": "Heeze / Noord-Brabant",
        "slug": "brabantse-vennen-ultra"
    },
    {
        "name": "11e Salomon Vuurtorentrail Festival Ameland 60km",
        "country": "Netherlands",
        "distance": "60km",
        "date": "16.03.2025",
        "url": "https://cairnadventures.nl/trail/vuurtorentrail-festival-ameland/",
        "city": "Hollum Ameland",
        "slug": "11e-salomon-vuurtorentrail-festival-ameland-60km"
    },
    {
        "name": "12. SallandTrail 80 km (50 Mijl)",
        "country": "Netherlands",
        "distance": "80km",
        "date": "08.03.2025",
        "url": "https://sallandtrail.nl/",
        "city": "Nijverdal",
        "lat": 52.3592015,
        "lng": 6.4654075,
        "slug": "12-sallandtrail-80-km-50-mijl"
    },
    {
        "name": "12. SallandTrail 50 km",
        "country": "Netherlands",
        "distance": "50km",
        "date": "08.03.2025",
        "url": "https://sallandtrail.nl/",
        "city": "Nijverdal",
        "lat": 52.3592015,
        "lng": 6.4654075,
        "slug": "12-sallandtrail-50-km"
    },
    {
        "name": "12. SallandTrail 60 km",
        "country": "Netherlands",
        "distance": "60km",
        "date": "08.03.2025",
        "url": "https://sallandtrail.nl/",
        "city": "Nijverdal",
        "lat": 52.3592015,
        "lng": 6.4654075,
        "slug": "12-sallandtrail-60-km"
    },
    {
        "name": "4 65 van Walcheren",
        "country": "Netherlands",
        "distance": "65km",
        "date": "02.03.2025",
        "url": "http://65vanwalcheren.nl",
        "city": "Vrouwenpolder",
        "lat": 51.576602,
        "lng": 3.6165776,
        "slug": "4-65-van-walcheren"
    },
    {
        "name": "6. Bosbokken Trail",
        "country": "Netherlands",
        "distance": "47km",
        "date": "23.02.2025",
        "url": "https://www.bosbokken.nl/",
        "city": "Burgh-Haamstede",
        "lat": 51.7022441,
        "lng": 3.722061,
        "slug": "6-bosbokken-trail"
    },
    {
        "name": "WoldjerspoorZoeker",
        "country": "Netherlands",
        "distance": "50km",
        "date": "23.02.2025",
        "url": "https://ultragrunnen.nl/woldjerspoorzoeker/",
        "city": "Delfzijl",
        "lat": 53.3325644,
        "lng": 6.9135144,
        "slug": "woldjerspoorzoeker"
    },
    {
        "name": "13th Dutch Coast Ultra Run by Night 50km",
        "country": "Netherlands",
        "distance": "50km",
        "date": "07.02.2025",
        "url": "https://www.facebook.com/groups/140119496133094",
        "city": "Den Helder",
        "lat": 52.9529894,
        "lng": 4.8267592,
        "slug": "13th-dutch-coast-ultra-run-by-night-50km"
    },
    {
        "name": "13th Dutch Coast Ultra Run by Night 75km",
        "country": "Netherlands",
        "distance": "75km",
        "date": "07.02.2025",
        "url": "https://www.facebook.com/groups/140119496133094",
        "city": "Den Helder",
        "lat": 52.9529894,
        "lng": 4.8267592,
        "slug": "13th-dutch-coast-ultra-run-by-night-75km"
    },
    {
        "name": "6th Drielandenpunt Winter Trail",
        "country": "Netherlands",
        "distance": "50km",
        "date": "02.02.2025",
        "url": "https://www.passionforsports.eu/nl-drielandenpunttrailwinter?count=1",
        "city": "Vaals",
        "lat": 50.7781016,
        "lng": 5.9810696,
        "slug": "6th-drielandenpunt-winter-trail"
    },
    {
        "name": "Pierewaai Trail Winter Ed. 50km",
        "country": "Netherlands",
        "distance": "50km",
        "date": "25.01.2025",
        "url": "https://www.pierewaaitrail.nl",
        "city": "Hoek van Holland",
        "lat": 51.9771615,
        "lng": 4.1314526,
        "slug": "pierewaai-trail-winter-ed-50km"
    },
    {
        "name": "Cauberg Trail - winter edition",
        "country": "Netherlands",
        "distance": "54km",
        "date": "04.01.2025",
        "url": "https://www.caubergtrail.nl/",
        "city": "Valkenburg",
        "lat": 50.8647531,
        "lng": 5.8312518,
        "slug": "cauberg-trail-winter-edition"
    },
    {
        "name": "UHUT100 Winter - Doorn",
        "country": "Netherlands",
        "distance": "50km",
        "date": "29.11.2026",
        "url": "http://www.trail-events.eu/EVENT-Utrechtse-Heuvelrug-Ultra-Trail-Winter-UHUT100-28-11-2026",
        "city": "Leersum",
        "lat": 52.0102642,
        "lng": 5.4332757,
        "slug": "uhut100-winter-doorn"
    },
    {
        "name": "UHUT100 Winter - Rhenen",
        "country": "Netherlands",
        "distance": "50km",
        "date": "28.11.2026",
        "url": "http://www.trail-events.eu/EVENT-Utrechtse-Heuvelrug-Ultra-Trail-Winter-UHUT100-28-11-2026",
        "city": "Leersum",
        "lat": 52.0102642,
        "lng": 5.4332757,
        "slug": "uhut100-winter-rhenen"
    },
    {
        "name": "Lage Vuursche Ultra",
        "country": "Netherlands",
        "distance": "50km",
        "date": "31.10.2026",
        "url": "http://www.trail-events.eu/EVENT-Lage-Vuursche-Ultra-31-10-2026",
        "city": "Baarn",
        "lat": 52.2111182,
        "lng": 5.2931841,
        "slug": "lage-vuursche-ultra"
    },
    {
        "name": "Dutch Backyard Ultra Zeewolde",
        "country": "Netherlands",
        "distance": "36h",
        "date": "17.10.2026",
        "url": "http://www.trail-events.eu/EVENT-Dutch-Backyard-Ultra-10-2026#/",
        "city": "Zeewolde",
        "lat": 52.331111,
        "lng": 5.5430312,
        "slug": "dutch-backyard-ultra-zeewolde"
    },
    {
        "name": "10. Indian Summer Ultra 50 km",
        "country": "Netherlands",
        "distance": "50km",
        "date": "10.10.2026",
        "url": "http://indiansummerultra.nl",
        "city": "Gasselte",
        "lat": 52.971916,
        "lng": 6.7921853,
        "slug": "10-indian-summer-ultra-50-km"
    },
    {
        "name": "10. Indian Summer Ultra 75 km",
        "country": "Netherlands",
        "distance": "75km",
        "date": "10.10.2026",
        "url": "http://indiansummerultra.nl",
        "city": "Gasselte",
        "lat": 52.971916,
        "lng": 6.7921853,
        "slug": "10-indian-summer-ultra-75-km"
    },
    {
        "name": "10. Indian Summer Ultra 100 km",
        "country": "Netherlands",
        "distance": "100km",
        "date": "10.10.2026",
        "url": "http://indiansummerultra.nl",
        "city": "Gasselte",
        "lat": 52.971916,
        "lng": 6.7921853,
        "slug": "10-indian-summer-ultra-100-km"
    },
    {
        "name": "Gelderse Poort Ultra",
        "country": "Netherlands",
        "distance": "50km",
        "date": "26.09.2026",
        "url": "http://www.trail-events.eu/EVENT-Gelderse-Poort-Ultra-26-09-2026",
        "city": "Berg en Dal",
        "lat": 51.8113566,
        "lng": 5.9170257,
        "slug": "gelderse-poort-ultra"
    },
    {
        "name": "50. RUN Winschoten 100 km",
        "country": "Netherlands",
        "distance": "100km",
        "date": "12.09.2026",
        "url": "http://www.runwinschoten.nl",
        "city": "Winschoten",
        "lat": 53.143001,
        "lng": 7.0380717,
        "slug": "50-run-winschoten-100-km"
    },
    {
        "name": "50. RUN Winschoten 50 km",
        "country": "Netherlands",
        "distance": "50km",
        "date": "12.09.2026",
        "url": "http://www.runwinschoten.nl",
        "city": "Winschoten",
        "lat": 53.143001,
        "lng": 7.0380717,
        "slug": "50-run-winschoten-50-km"
    },
    {
        "name": "Austerlitz Ultra",
        "country": "Netherlands",
        "distance": "50km",
        "date": "30.08.2026",
        "url": "http://www.trail-events.eu/EVENT-Austerlitz-Ultra-30-08-2026",
        "city": "Zeist",
        "lat": 52.0892832,
        "lng": 5.2276307,
        "slug": "austerlitz-ultra"
    },
    {
        "name": "Westerwolde Ultra",
        "country": "Netherlands",
        "distance": "100km",
        "date": "28.06.2026",
        "url": "https://ultragrunnen.nl/westerwolde-ultra/",
        "city": "Wedde",
        "lat": 53.0690643,
        "lng": 7.0762777,
        "slug": "westerwolde-ultra"
    },
    {
        "name": "25 Zes uur van de Haarlemmermeer",
        "country": "Netherlands",
        "distance": "6h",
        "date": "27.06.2026",
        "url": "https://avhaarlemmermeer.nl/6uur/",
        "city": "Hoofddorp",
        "lat": 52.305554,
        "lng": 4.6926644,
        "slug": "25-zes-uur-van-de-haarlemmermeer"
    },
    {
        "name": "Vechtdal Trail",
        "country": "Netherlands",
        "distance": "60km",
        "date": "20.06.2026",
        "url": "https://vechtdaltrail.nl",
        "city": "Ommen",
        "lat": 52.510347,
        "lng": 6.4524247,
        "slug": "vechtdal-trail"
    },
    {
        "name": "5. Pierewaai Summer Beach Trail",
        "country": "Netherlands",
        "distance": "60km",
        "date": "20.06.2026",
        "url": "https://pierewaaitrail.nl/",
        "city": "IJmuiden",
        "lat": 52.4574236,
        "lng": 4.6111981,
        "slug": "5-pierewaai-summer-beach-trail"
    },
    {
        "name": "4. Rondom Stad",
        "country": "Netherlands",
        "distance": "64km",
        "date": "13.06.2026",
        "url": "https://runningrunn.nl/rondomstad/2026/informatie.php",
        "city": "Sint Annen",
        "lat": 53.2979462,
        "lng": 6.6652567,
        "slug": "4-rondom-stad"
    },
    {
        "name": "7. Linie1629ultra",
        "country": "Netherlands",
        "distance": "50km",
        "date": "06.06.2026",
        "url": "http://Linie1629ultra.nl",
        "city": "Vught",
        "lat": 51.6511806,
        "lng": 5.2368001,
        "slug": "7-linie1629ultra"
    },
    {
        "name": "20. Sri Chinmoy 50 km-Lauf Amsterdam",
        "country": "Netherlands",
        "distance": "50km",
        "date": "30.05.2026",
        "url": "http://nl.srichinmoyraces.org/",
        "city": "Amstelveen",
        "lat": 52.3028209,
        "lng": 4.8596844,
        "slug": "20-sri-chinmoy-50-km-lauf-amsterdam"
    },
    {
        "name": "20. Sri Chinmoy 100km-Lauf Amsterdam",
        "country": "Netherlands",
        "distance": "100km",
        "date": "30.05.2026",
        "url": "http://nl.srichinmoyraces.org/",
        "city": "Amstelveen",
        "lat": 52.3028209,
        "lng": 4.8596844,
        "slug": "20-sri-chinmoy-100km-lauf-amsterdam"
    },
    {
        "name": "UHUT UtrechtseHeuvelUltratrail 75 km",
        "country": "Netherlands",
        "distance": "75km",
        "date": "30.05.2026",
        "url": "http://www.trail-events.eu/EVENT-Utrechtse-Heuvelrug-Ultra-Trail-UHUT100-30-05-2026",
        "city": "Leersum",
        "lat": 52.0102642,
        "lng": 5.4332757,
        "slug": "uhut-utrechtseheuvelultratrail-75-km"
    },
    {
        "name": "Schipholloop (Ronde om de Haarlemmermeer)",
        "country": "Netherlands",
        "distance": "60km",
        "date": "23.05.2026",
        "url": "https://schipholloop.nl",
        "city": "Amsterdam Airport Schiphol",
        "slug": "schipholloop-ronde-om-de-haarlemmermeer"
    },
    {
        "name": "6-uursloop Terwille",
        "country": "Netherlands",
        "distance": "6h",
        "date": "16.05.2026",
        "url": "https://mv-moves.nl/12-uursloop-terwille/",
        "city": "Tynaarlo",
        "lat": 53.1119991,
        "lng": 6.5598398,
        "slug": "6-uursloop-terwille"
    },
    {
        "name": "12-uursloop Terwille",
        "country": "Netherlands",
        "distance": "12h",
        "date": "16.05.2026",
        "url": "https://mv-moves.nl/12-uursloop-terwille/",
        "city": "Tynaarlo",
        "lat": 53.1119991,
        "lng": 6.5598398,
        "slug": "12-uursloop-terwille"
    },
    {
        "name": "5. 6hrs Sittard",
        "country": "Netherlands",
        "distance": "6h",
        "date": "10.05.2026",
        "url": "https://www.24hrssittard.com/",
        "city": "Sittard",
        "lat": 50.9974235,
        "lng": 5.8666627,
        "slug": "5-6hrs-sittard"
    },
    {
        "name": "18e De 120 van Texel",
        "country": "Netherlands",
        "distance": "120km",
        "date": "29.03.2026",
        "url": "https://dezestigvantexel.nl/",
        "city": "Den Burg (Texel)",
        "slug": "18e-de-120-van-texel"
    },
    {
        "name": "18e De Zestig van Texel",
        "country": "Netherlands",
        "distance": "60km",
        "date": "29.03.2026",
        "url": "https://dezestigvantexel.nl/",
        "city": "Den Hoorn (Texel)",
        "slug": "18e-de-zestig-van-texel"
    },
    {
        "name": "12e Salomon Vuurtorentrail Festival Ameland 60km",
        "country": "Netherlands",
        "distance": "60km",
        "date": "15.03.2026",
        "url": "https://cairnadventures.nl/trail/vuurtorentrail-festival-ameland/",
        "city": "Hollum Ameland",
        "slug": "12e-salomon-vuurtorentrail-festival-ameland-60km"
    },
    {
        "name": "13. SallandTrail 50 km",
        "country": "Netherlands",
        "distance": "50km",
        "date": "07.03.2026",
        "url": "https://sallandtrail.nl/",
        "city": "Nijverdal",
        "lat": 52.3592015,
        "lng": 6.4654075,
        "slug": "13-sallandtrail-50-km"
    },
    {
        "name": "13. SallandTrail 60 km",
        "country": "Netherlands",
        "distance": "60km",
        "date": "07.03.2026",
        "url": "https://sallandtrail.nl/",
        "city": "Nijverdal",
        "lat": 52.3592015,
        "lng": 6.4654075,
        "slug": "13-sallandtrail-60-km"
    },
    {
        "name": "13. SallandTrail 80 km (50 Mijl)",
        "country": "Netherlands",
        "distance": "80km",
        "date": "07.03.2026",
        "url": "https://sallandtrail.nl/",
        "city": "Nijverdal",
        "lat": 52.3592015,
        "lng": 6.4654075,
        "slug": "13-sallandtrail-80-km-50-mijl"
    },